,City,Country,Latitude,Longitude,Dist_Equator,Elevation,Dist_to_coast,Average high °C_Jan,Average high °C_Feb,Average high °C_Mar,Average high °C_Apr,Average high °C_May,Average high °C_Jun,Average high °C_Jul,Average high °C_Aug,Average high °C_Sep,Average high °C_Oct,Average high °C_Nov,Average high °C_Dec,Average high °C_Year,Average low °C_Jan,Average low °C_Feb,Average low °C_Mar,Average low °C_Apr,Average low °C_May,Average low °C_Jun,Average low °C_Jul,Average low °C_Aug,Average low °C_Sep,Average low °C_Oct,Average low °C_Nov,Average low °C_Dec,Average low °C_Year,Average precipitation mm_Jan,Average precipitation mm_Feb,Average precipitation mm_Mar,Average precipitation mm_Apr,Average precipitation mm_May,Average precipitation mm_Jun,Average precipitation mm_Jul,Average precipitation mm_Aug,Average precipitation mm_Sep,Average precipitation mm_Oct,Average precipitation mm_Nov,Average precipitation mm_Dec,Average precipitation mm_Year,Average precipitation days_Jan,Average precipitation days_Feb,Average precipitation days_Mar,Average precipitation days_Apr,Average precipitation days_May,Average precipitation days_Jun,Average precipitation days_Jul,Average precipitation days_Aug,Average precipitation days_Sep,Average precipitation days_Oct,Average precipitation days_Nov,Average precipitation days_Dec,Average precipitation days_Year,Mean monthly sunshine hours_Jan,Mean monthly sunshine hours_Feb,Mean monthly sunshine hours_Mar,Mean monthly sunshine hours_Apr,Mean monthly sunshine hours_May,Mean monthly sunshine hours_Jun,Mean monthly sunshine hours_Jul,Mean monthly sunshine hours_Aug,Mean monthly sunshine hours_Sep,Mean monthly sunshine hours_Oct,Mean monthly sunshine hours_Nov,Mean monthly sunshine hours_Dec,Mean monthly sunshine hours_Year
0,Baltimore(MD),United States,39.2908816,-76.610759,4368.9466973120425,6.0,2,5.8,7.6,12.2,18.6,24.0,29.4,31.7,30.6,26.8,20.2,14.3,7.8,19.1,-1.6,-0.3,3.8,8.7,13.8,19.5,22.5,21.6,17.7,11.0,6.1,0.4,10.3,74.0,66.0,98.0,82.0,89.0,83.0,117.0,86.0,104.0,77.0,75.0,87.0,1038.0,9.5,8.4,10.5,11.1,11.2,10.8,10.7,9.2,8.9,8.3,8.8,9.9,117.3,155.4,164.0,215.0,230.7,254.5,277.3,290.1,264.4,221.8,205.5,158.5,144.5,2581.7
1,Melbourne,Australia,-37.814217600000006,144.9631608,4204.749152153382,25.0,4,27.0,26.9,24.6,21.1,17.6,15.1,14.5,15.9,18.1,20.5,22.9,24.8,20.8,16.1,16.4,14.6,11.8,9.8,8.2,7.5,7.9,9.4,10.9,12.8,14.3,11.6,44.2,50.2,39.0,53.2,43.9,49.5,39.8,47.0,54.5,55.8,63.3,60.9,600.9,5.6,5.0,5.5,7.1,8.1,8.6,8.3,9.4,9.8,9.0,7.7,6.5,90.6,272.8,228.8,226.3,186.0,142.6,123.0,136.4,167.4,186.0,226.3,225.0,263.5,2384.1
2,Niamey,Niger,13.524834,2.109823,1503.892924509834,209.0,781,32.5,35.7,39.1,40.9,40.2,37.2,34.0,33.0,34.4,37.8,36.2,33.3,36.2,16.1,19.0,22.9,26.5,27.7,25.7,24.1,23.2,23.6,24.2,19.5,16.7,22.4,0.0,0.0,3.9,5.7,34.7,68.8,154.3,170.8,92.2,9.7,0.7,0.0,540.8,0.0,0.0,0.2,0.8,2.9,5.9,9.9,12.2,7.4,1.6,0.1,0.0,41.0,280.0,264.0,264.0,251.0,257.0,251.0,238.0,203.0,228.0,285.0,285.0,276.0,3082.0
3,Hanoi,Vietnam,21.0294498,105.85444409999998,2338.36812788643,19.0,77,19.7,20.1,22.9,27.2,31.4,32.9,33.1,32.3,31.2,28.8,25.3,22.0,27.2,14.3,15.3,18.1,21.7,24.6,26.1,26.3,26.0,24.9,22.3,18.9,15.6,21.2,18.0,19.0,34.0,105.0,165.0,266.0,253.0,274.0,243.0,156.0,59.0,20.0,1612.0,10.3,12.4,16.0,14.4,14.5,14.6,15.6,16.9,13.6,10.9,7.9,5.0,152.1,74.0,47.0,47.0,90.0,183.0,172.0,195.0,174.0,176.0,167.0,137.0,124.0,1586.0
4,Urumqi,China,43.419754,87.319461,4828.056360954785,2071.0,2312,-7.4,-4.7,2.7,16.1,23.1,27.6,30.1,29.0,23.1,13.2,2.0,-4.4,12.5,-16.6,-13.7,-5.4,4.8,11.2,16.1,18.2,16.7,11.2,3.1,-5.9,-12.9,2.2,10.4,10.0,18.5,32.3,38.9,36.2,30.4,23.3,26.2,26.3,19.1,14.6,286.2,9.2,7.2,7.2,6.8,6.8,8.0,8.4,6.3,5.0,5.5,6.9,9.6,86.9,101.6,128.8,180.5,248.0,283.3,282.7,298.7,301.0,262.6,224.4,127.4,84.3,2523.3
5,Milwaukee(WI),United States,43.0349931,-87.92249699999998,4785.272900903591,181.0,1023,-1.7,0.3,5.8,12.1,18.3,24.1,26.7,25.8,21.8,15.2,7.8,0.4,13.1,-9.1,-7.1,-2.4,2.9,8.1,13.9,17.5,17.2,12.7,6.2,0.0,-6.6,4.5,45.0,42.0,58.0,90.0,86.0,99.0,93.0,101.0,81.0,67.0,69.0,52.0,883.0,11.4,9.7,11.4,12.1,11.4,10.4,9.8,9.5,8.8,10.0,11.3,10.9,126.7,140.2,151.5,185.4,213.5,275.5,304.5,321.1,281.2,215.1,178.0,112.8,104.8,2483.6
6,Paris,France,48.8566969,2.3514616000000004,5432.61682789094,39.0,148,7.2,8.3,12.2,15.6,19.6,22.7,25.2,25.0,21.1,16.3,10.8,7.5,16.0,2.7,2.8,5.3,7.3,10.9,13.8,15.8,15.7,12.7,9.6,5.8,3.4,8.8,51.0,41.2,47.6,51.8,63.2,49.6,62.3,52.7,47.6,61.5,51.1,57.8,637.4,9.9,9.0,10.6,9.3,9.8,8.4,8.1,7.7,7.8,9.6,10.0,10.9,111.1,62.5,79.2,128.9,166.0,193.8,202.1,212.2,212.1,167.9,117.8,67.7,51.4,1661.6
7,Montevideo,Uruguay,-34.9059039,-56.1913569,3881.3594236225167,44.0,2,27.7,26.8,25.3,21.7,18.2,15.2,14.5,16.3,17.5,20.8,23.3,26.0,21.1,18.8,18.7,17.3,14.1,10.9,8.3,7.6,8.5,9.9,12.5,14.7,17.0,13.2,86.8,101.5,104.6,85.5,89.0,83.1,86.4,88.2,93.9,108.5,89.3,84.4,1101.2,6.0,7.0,6.0,6.0,6.0,7.0,7.0,6.0,6.0,7.0,7.0,6.0,77.0,294.5,234.5,220.1,162.0,161.2,126.0,142.6,164.3,180.0,226.3,249.0,282.1,2442.6
8,Krakow,Poland,50.0619474,19.9368564,5566.634568826758,219.0,465,1.0,2.5,7.5,14.0,19.4,21.9,24.2,23.7,18.4,13.6,6.5,1.8,12.9,-4.9,-4.0,-0.6,3.9,8.8,11.9,13.7,13.2,9.3,4.8,0.3,-3.6,4.4,39.0,33.0,39.0,47.0,82.0,90.0,85.0,74.0,61.0,41.0,41.0,38.0,670.0,10.0,9.0,12.0,13.0,15.0,15.0,14.0,12.0,14.0,14.0,13.0,12.0,153.0,40.0,56.0,89.0,134.0,182.0,192.0,203.0,188.0,129.0,103.0,48.0,32.0,1396.0
9,Yekaterinburg,Russia,56.839104000000006,60.60825,6320.219999822446,251.0,1171,-9.1,-6.8,1.0,9.8,17.4,23.0,24.4,21.1,14.5,6.8,-2.8,-7.9,7.6,-15.7,-14.5,-7.6,0.0,6.2,12.1,14.4,11.9,6.4,0.7,-8.3,-13.7,-0.7,27.0,20.0,21.0,28.0,50.0,75.0,91.0,73.0,58.0,39.0,33.0,27.0,542.0,1.0,1.0,5.0,13.0,20.0,20.0,19.0,22.0,22.0,17.0,6.0,1.0,147.0,47.0,94.0,164.0,206.0,256.0,272.0,269.0,217.0,143.0,78.0,51.0,37.0,1834.0
10,Pune,India,18.521428,73.8544541,2059.4888278124763,550.0,85,29.8,32.1,35.6,37.6,36.9,31.9,28.3,27.6,29.4,31.5,30.4,29.2,31.7,11.2,12.2,15.7,19.6,22.6,23.1,22.4,21.7,20.9,18.4,14.5,11.5,17.8,1.1,0.3,2.2,8.5,26.8,173.4,181.4,145.2,146.1,86.3,25.0,7.0,803.0,0.2,0.1,0.2,0.8,1.9,9.5,12.4,9.8,8.0,4.4,1.2,0.3,48.7,294.5,282.5,300.7,303.0,313.1,183.0,114.7,111.6,177.0,244.9,264.0,279.0,2868.0
11,Cebu,Philippines,10.45,123.84,1161.9869834356389,373.0,16,24.563227125379314,25.254188510851208,27.211151196986346,29.563926020290772,31.118855665304345,31.926380580149484,32.57119012045561,32.17255453689941,31.302335390474177,29.849370062443192,27.948047254815112,25.541087253821484,29.088286517745562,17.77849822144942,18.338003982147022,19.969269286999907,22.465603581467708,24.42464102411964,25.35783485058108,25.86925096237226,25.710661712570605,25.056579360406154,23.737128119606034,21.564674035530143,18.88297779715796,22.46059142267353,47.0104492579233,75.08050177523191,84.26698625945156,100.0140227126424,194.23384561537026,316.45346959694507,330.076282991071,360.0433164372103,289.0721466076442,133.272097377695,74.75804203164245,55.24052775383419,2059.521688416661,7.699524199950361,7.821885206320287,8.29220128252069,8.92553738029318,11.906381163732618,15.603321588441215,15.23188120643943,16.755850140274198,14.410503143100183,10.45597111170159,9.123538387303068,7.381685729820632,133.60828053989746,135.02457225031606,131.73838511531403,150.72054368359855,159.38427179714427,160.25306606417257,146.10344973101897,163.56096894098235,156.81166456812815,142.32047037365774,146.59774419338927,130.68829979797565,128.34109364382806,1751.5445301595257
12,Abidjan,Ivory Coast,5.4091179,-4.0422099000000005,601.4664681022697,89.0,18,30.5,31.0,31.1,31.2,30.4,28.7,27.4,26.9,27.6,29.2,30.5,30.3,29.6,23.5,24.6,24.9,24.9,24.6,23.7,22.9,22.1,22.3,23.6,24.4,23.8,23.8,16.3,48.9,106.7,141.3,293.5,561.8,205.7,36.8,80.5,137.7,143.3,75.1,1847.6,3.0,4.0,9.0,11.0,19.0,22.0,12.0,8.0,11.0,14.0,16.0,9.0,138.0,183.0,212.0,226.0,210.0,192.0,117.0,115.0,121.0,141.0,202.0,225.0,208.0,2152.0
13,Austin(TX),United States,30.2711286,-97.7436995,3365.995924125004,159.0,200,16.4,18.4,22.3,26.6,30.3,33.4,35.3,36.1,32.5,27.7,21.9,17.1,26.6,5.3,7.1,10.7,14.8,19.3,22.4,23.6,23.7,20.8,15.9,10.3,5.7,15.0,56.0,51.0,70.0,53.0,113.0,110.0,48.0,60.0,76.0,99.0,75.0,61.0,872.0,7.4,7.4,9.2,7.1,8.9,7.7,5.4,4.9,6.7,7.5,7.5,7.8,87.5,163.8,169.3,205.9,205.8,227.1,285.5,317.2,297.9,233.8,215.6,168.3,153.5,2643.7
14,Yaounde,Cameroon,3.8689867,11.5213344,430.2116922952734,718.0,185,29.6,31.0,30.4,29.6,28.8,27.7,26.5,26.5,27.5,27.8,28.1,28.5,28.5,19.6,20.3,20.3,20.3,20.2,19.9,19.9,19.3,19.3,19.2,19.6,19.5,19.8,19.0,42.8,124.9,171.3,199.3,157.1,74.2,113.7,232.3,293.6,94.3,18.6,1541.1,3.0,4.0,12.0,14.0,17.0,14.0,11.0,12.0,20.0,23.0,11.0,3.0,144.0,172.0,179.0,169.9,164.5,166.2,126.0,96.1,86.2,102.4,130.2,167.1,181.4,1741.0
15,Delhi,India,28.627392800000006,77.1716954,3183.22084242097,255.0,824,20.5,23.9,29.6,36.3,39.5,39.2,35.4,34.1,34.1,32.8,28.2,23.1,31.4,7.6,10.4,15.6,21.3,25.8,27.9,27.4,26.6,25.0,19.1,12.9,8.3,19.0,19.3,22.1,15.9,13.0,31.5,82.2,187.3,232.5,129.8,14.3,4.9,9.4,762.3,1.3,1.8,1.6,1.2,2.5,4.6,9.4,9.8,5.5,1.0,0.5,0.9,40.1,220.1,223.2,248.0,276.0,285.2,219.0,179.8,176.7,219.0,260.4,246.0,220.1,2773.5
16,Hefei,China,31.8228094,117.2218033,3538.534956856774,37.0,269,6.9,9.4,14.4,21.1,26.6,29.3,32.2,31.8,27.8,22.5,16.0,9.7,20.6,-0.3,1.9,6.1,12.2,17.6,21.7,25.2,24.3,19.8,13.8,7.1,1.6,12.6,42.4,52.3,76.6,81.4,91.1,142.9,173.3,126.0,67.2,57.4,59.4,30.8,1000.8,8.2,8.9,11.6,10.3,10.2,10.6,12.1,11.0,7.8,8.5,7.6,6.0,112.8,118.7,113.5,138.6,168.0,190.9,165.5,189.2,190.9,153.8,154.4,148.7,135.8,1868.0
17,Dubai,United Arab Emirates,25.0750095,55.18876088183319,2788.2138419641133,-1.0,5,23.9,25.4,28.9,33.3,37.7,39.8,40.9,41.3,38.9,35.4,30.6,26.2,33.5,14.3,15.5,18.3,21.7,25.1,27.3,30.0,30.4,27.7,24.1,20.1,16.3,22.6,18.8,25.0,22.1,7.2,0.4,0.0,0.8,0.0,0.0,1.1,2.7,16.2,94.3,5.5,4.7,5.8,2.6,0.3,0.0,0.5,0.5,0.1,0.2,1.3,3.8,25.3,251.0,241.0,270.0,306.0,350.0,345.0,332.0,326.0,309.0,307.0,279.0,254.0,3570.0
18,Chicago(IL),United States,41.87556160000001,-87.6244212,4656.350000311702,179.0,950,-0.3,2.1,8.2,15.1,21.2,26.6,29.0,27.8,24.1,17.1,9.2,1.8,15.2,-7.7,-5.7,-0.6,5.4,10.9,16.7,19.7,19.0,14.2,7.6,1.4,-5.2,6.4,52.0,49.0,69.0,92.0,105.0,103.0,102.0,101.0,84.0,82.0,87.0,65.0,993.0,10.7,8.8,11.2,11.1,11.4,10.3,9.9,9.0,8.2,10.2,11.2,11.1,123.1,163.88223711728227,173.69962556141485,215.91952171393717,232.44373613238798,253.81703672703128,250.75840241509115,257.19268063891695,248.95275826617234,213.99944289215338,207.06767768164082,156.48865058189352,150.50966017587714,2524.731429903799
19,Dalian,China,38.9181714,121.6282945,4327.503213963363,19.0,3,-0.2,2.2,7.6,15.0,20.6,24.6,26.9,27.5,24.2,17.9,9.7,3.0,14.9,-6.4,-4.2,0.7,7.0,12.7,17.6,21.3,21.9,17.9,11.1,2.9,-3.4,8.3,8.0,6.7,13.5,29.1,49.8,76.6,127.6,147.1,60.4,33.5,19.1,8.4,579.8,3.3,2.9,3.7,5.4,7.0,9.3,11.8,9.2,6.0,5.2,5.3,3.4,72.5,198.0,200.2,238.8,256.9,277.6,254.7,220.7,240.8,251.5,234.6,182.1,183.9,2739.8
20,Ho Chi Minh City,Vietnam,10.7758439,106.7017555,1198.2191719937157,11.0,23,31.6,32.9,33.9,34.6,34.0,32.4,32.0,31.8,31.3,31.2,31.0,30.8,32.3,21.1,22.5,24.4,25.8,25.2,24.6,24.3,24.3,24.4,23.9,22.8,21.4,23.7,13.8,4.1,10.5,50.4,218.4,311.7,293.7,269.8,327.1,266.7,116.5,48.3,1931.0,2.4,1.0,1.9,5.4,17.8,19.0,22.9,22.4,23.1,20.9,12.1,6.7,155.6,245.0,246.0,272.0,239.0,195.0,171.0,180.0,172.0,162.0,182.0,200.0,226.0,2490.0
21,Kharkiv,Ukraine,49.9902794,36.2303893,5558.665450823995,119.0,335,-2.2,-1.6,4.3,14.0,20.8,24.3,26.4,25.7,19.4,12.0,3.6,-1.1,12.1,-7.0,-7.3,-2.4,4.6,10.3,14.2,16.2,14.9,9.8,4.3,-1.5,-5.9,4.2,36.0,33.0,33.0,34.0,50.0,61.0,60.0,42.0,47.0,45.0,41.0,36.0,517.0,10.0,8.0,10.0,13.0,14.0,15.0,13.0,10.0,12.0,13.0,13.0,12.0,143.0,51.0,65.0,108.0,162.0,238.0,263.0,273.0,247.0,185.0,124.0,47.0,31.0,1794.0
22,Managua,Nicaragua,12.1459907,-86.27466650000002,1350.5725449119925,80.0,46,31.0,32.1,33.6,34.3,34.0,31.4,30.9,31.4,30.3,30.8,30.6,30.8,31.8,20.4,20.6,21.7,22.6,23.4,23.0,22.6,22.4,22.2,22.1,20.9,20.0,21.8,9.0,5.0,3.0,8.0,130.0,224.0,144.0,136.0,215.0,280.0,42.0,8.0,1204.0,4.0,2.0,2.0,2.0,10.0,22.0,20.0,17.0,20.0,19.0,10.0,5.0,133.0,263.5,254.2,291.4,276.0,229.4,186.0,151.9,195.3,210.0,223.2,231.0,248.0,2759.9
23,Kathmandu,Nepal,27.708317,85.3205817,3081.02427625918,1303.0,664,19.1,21.4,25.3,28.2,28.7,29.1,28.4,28.7,28.1,26.8,23.6,20.2,25.6,2.4,4.5,8.2,11.7,15.7,19.1,20.2,20.0,18.5,13.4,7.8,3.7,12.1,14.4,18.7,34.2,61.0,123.6,236.3,363.4,330.8,199.8,51.2,8.3,13.2,1454.9,2.0,3.0,4.0,6.0,12.0,17.0,23.0,22.0,15.0,4.0,1.0,1.0,110.0,223.0,254.0,260.0,231.0,229.0,186.0,136.0,159.0,132.0,252.0,244.0,250.0,2556.0
24,Chittagong,Bangladesh,22.3307998,91.8412863,2483.071645675327,8.0,8,26.0,28.3,30.8,31.9,32.4,31.7,31.0,31.4,31.8,31.7,30.0,27.2,30.4,14.0,16.3,20.5,23.6,24.9,25.4,25.2,25.3,25.2,24.1,20.3,15.8,21.7,7.3,25.0,55.5,136.4,314.0,591.3,735.6,513.9,239.3,197.8,59.5,14.1,2889.7,1.0,2.0,4.0,8.0,13.0,16.0,19.0,17.0,13.0,7.0,3.0,1.0,104.0,264.1,244.3,276.4,242.7,227.2,116.7,105.1,124.4,166.7,218.2,241.3,245.5,2472.6
25,Karachi,Pakistan,24.8667795,67.0311286,2765.0597223889167,18.0,4,28.2,28.4,32.2,34.7,35.5,35.4,33.3,32.1,33.2,35.5,32.5,28.2,32.4,12.7,14.0,18.6,23.0,26.6,28.3,27.6,26.3,25.6,21.9,16.8,12.7,21.2,8.4,7.4,5.3,3.0,0.1,10.8,60.0,60.9,11.0,2.6,0.4,4.8,174.7,0.7,0.8,0.7,0.2,0.1,0.9,8.0,3.3,0.7,0.3,0.1,0.7,16.5,269.7,251.4,272.8,276.0,297.6,231.0,155.0,148.8,219.0,282.1,273.0,272.8,2949.2
26,Glasgow,United Kingdom,55.8609825,-4.2488787000000015,6211.457851380479,26.0,12,6.9,7.4,9.6,12.6,15.9,18.1,19.7,19.2,16.4,12.7,9.4,6.9,12.9,1.8,1.8,3.0,4.8,7.3,10.1,12.0,11.7,9.7,6.7,4.0,1.7,6.2,148.2,104.6,112.3,63.6,67.5,66.4,73.0,92.5,112.5,143.1,126.4,135.2,1245.3,17.3,13.2,14.9,11.6,11.9,11.1,12.0,12.8,13.8,16.8,16.0,15.5,167.0,37.6,66.9,98.6,134.5,180.1,158.9,154.3,146.8,114.9,85.2,54.0,33.1,1265.0
27,Huambo,Angola,-12.607631800000002,15.7411039,1401.9046931626062,1571.0,227,24.9,25.2,25.0,25.5,25.4,24.6,25.0,27.2,28.7,27.3,25.2,24.9,25.7,14.4,14.2,14.4,13.7,10.5,7.8,7.9,10.3,13.0,14.2,14.3,14.3,12.4,220.0,179.0,239.0,146.0,14.0,0.0,0.0,1.0,19.0,119.0,227.0,234.0,1398.0,20.0,17.0,22.0,14.0,3.0,0.0,0.0,0.0,4.0,16.0,21.0,21.0,138.0,142.6,141.3,142.6,171.0,241.8,270.0,269.7,254.2,201.0,164.3,135.0,139.5,2273.0
28,Santa Cruz,Bolivia,-17.333333,-61.5,1927.378691440709,259.0,941,30.2,30.5,29.5,27.7,24.9,23.1,23.9,27.7,29.4,29.8,30.7,31.4,28.2,21.3,21.3,20.5,18.9,16.5,15.4,14.8,16.3,18.7,19.8,20.3,20.9,18.7,203.0,134.0,118.0,118.0,84.0,73.0,61.0,37.0,58.0,108.0,143.0,185.0,1321.0,14.0,11.1,12.7,9.4,11.4,8.6,6.1,4.0,5.6,7.4,9.4,11.9,111.6,209.33268766361135,197.09450269397195,208.56368943155672,212.87662009591384,227.62655981108554,229.45804464408985,243.34424967603633,243.5739376678987,213.8730629195103,208.699986719155,193.23482734822483,197.21633560004256,2584.894504271097
29,Lille,France,50.6365654,3.0635282000000004,5630.529175185401,28.0,63,6.0,6.9,10.6,14.1,17.9,20.6,23.3,23.3,19.7,15.2,9.8,6.4,14.5,1.2,1.3,3.6,5.4,8.9,11.7,13.8,13.6,11.2,8.1,4.4,1.9,7.1,60.5,47.4,58.3,50.7,64.0,64.6,68.5,62.8,61.6,66.2,70.1,67.8,742.5,11.7,9.6,11.4,10.1,10.6,10.0,9.8,9.2,10.1,11.0,12.6,11.3,127.4,65.5,70.7,121.1,172.2,193.9,206.0,211.3,199.5,151.9,114.4,61.4,49.6,1617.5
30,Baghdad,Iraq,33.3024309,44.3787992,3703.061361010986,40.0,493,15.5,18.5,23.6,29.9,36.5,41.3,44.0,43.5,40.2,33.4,23.7,17.2,30.6,3.8,5.5,9.6,15.2,20.1,23.3,25.5,24.5,20.7,15.9,9.2,5.1,14.9,26.0,28.0,28.0,17.0,7.0,0.0,0.0,0.0,0.0,3.0,21.0,26.0,156.0,5.0,5.0,6.0,4.0,2.0,0.0,0.0,0.0,0.0,1.0,5.0,6.0,34.0,192.2,203.4,244.9,255.0,300.7,348.0,347.2,353.4,315.0,272.8,213.0,195.3,3240.9
31,Rabat,Morocco,34.022405,-6.834542999999999,3783.1188282464686,26.0,1,17.2,17.7,19.2,20.0,22.1,24.1,26.8,27.1,26.4,24.0,20.6,17.7,21.9,8.0,8.6,9.2,10.4,12.7,15.4,17.6,17.7,16.7,14.1,11.1,8.7,12.5,77.2,74.1,60.9,62.0,25.3,6.7,0.5,1.3,5.7,43.6,96.7,100.9,554.9,9.9,9.8,9.0,8.7,5.7,2.4,0.3,0.4,2.4,6.4,10.2,10.4,75.6,179.9,182.3,232.0,254.5,290.5,287.6,314.7,307.0,261.1,235.1,190.5,180.9,2916.1
32,Chongqing,China,29.5647398,106.5478767,3287.449073326466,226.0,872,10.3,12.9,17.7,23.0,27.2,29.4,33.0,33.2,28.3,21.7,17.1,11.5,22.1,6.2,8.0,11.2,15.4,19.3,22.1,24.8,24.7,21.2,16.5,12.3,7.7,15.8,19.7,23.3,43.2,95.2,145.9,192.6,186.0,137.9,105.8,85.8,48.3,24.3,1108.0,10.0,9.8,11.9,14.3,15.5,15.7,12.5,11.3,12.7,16.1,11.5,9.8,151.1,20.6,29.7,64.9,93.6,109.4,97.7,158.6,167.0,106.6,50.4,35.9,20.4,954.8
33,Cologne-Bonn,Germany,50.8677927,7.138906289514832,5656.240477847121,76.0,198,5.4,6.7,10.9,15.1,19.3,21.9,24.4,24.0,19.9,15.1,9.5,5.9,14.8,-0.6,-0.7,2.0,4.2,8.1,11.0,13.2,12.6,9.8,6.7,3.1,0.4,5.8,62.1,54.2,64.6,53.9,72.2,90.7,85.8,75.0,74.9,67.1,67.0,71.1,838.6,14.43991251179813,12.099062983761778,13.422997812447171,11.57211077865598,12.377891123436012,12.216715136450171,11.810516237250855,11.788077400956197,12.410909324763722,13.061560781960992,14.41097073009579,14.927420844288552,154.07455152296035,54.0,78.8,120.3,167.2,193.0,193.6,209.7,194.2,141.5,109.2,60.7,45.3,1567.5
34,Algiers,Algeria,28.0000272,2.9999825,3113.4609705496496,494.0,907,16.7,17.4,19.3,20.9,23.9,28.2,31.2,32.2,29.6,25.9,20.8,17.9,23.7,5.5,5.9,7.1,8.8,12.3,16.1,18.9,19.8,17.6,14.2,9.8,7.2,11.9,81.4,72.7,55.0,58.4,41.9,8.5,4.5,8.2,28.3,58.8,89.6,91.0,598.3,11.4,10.6,9.7,9.1,7.3,2.5,1.5,2.5,5.3,8.6,11.1,12.1,91.7,139.5,158.2,207.7,228.0,300.7,300.0,353.4,325.5,267.0,198.4,153.0,145.7,2777.1
35,Bangalore,India,12.9791198,77.5912997,1443.2122740719396,924.0,262,27.9,30.7,33.1,34.0,33.3,29.6,28.3,27.8,28.6,28.2,27.2,26.5,29.6,15.8,17.5,20.0,22.0,21.7,20.4,19.9,19.8,19.8,19.6,18.0,16.2,19.2,1.9,5.4,18.5,41.5,107.4,106.5,112.9,147.0,212.8,168.3,48.9,15.7,986.9,0.2,0.4,1.1,3.1,6.7,6.2,7.2,9.9,9.8,8.3,3.8,1.4,58.1,262.3,247.6,271.4,257.0,241.1,136.8,111.8,114.3,143.6,173.1,190.2,211.7,2360.9
36,Mombasa,Kenya,-4.05052,39.667169,450.39727427231804,21.0,1,33.2,33.7,33.7,32.5,30.9,29.4,28.7,28.8,29.7,30.5,31.6,32.8,31.3,22.0,22.5,22.9,22.7,21.6,20.1,19.3,19.3,19.7,20.9,22.1,22.0,21.3,33.9,14.0,55.6,154.3,235.5,88.3,71.8,68.2,67.2,103.4,104.7,75.8,1072.7,3.0,1.0,5.0,10.0,14.0,10.0,10.0,8.0,9.0,9.0,8.0,7.0,94.0,269.7,254.8,269.7,225.0,204.6,207.0,210.8,244.9,246.0,272.8,264.0,260.4,2929.7
37,Barcelona,Spain,41.3828939,2.1774322,4601.567851550057,32.0,1,14.8,15.6,17.4,19.1,22.5,26.1,28.6,29.0,26.0,22.5,17.9,15.1,21.2,8.8,9.3,10.9,12.5,16.1,19.8,22.7,23.1,20.0,16.5,11.9,9.5,15.1,43.7,31.4,33.0,47.7,47.4,32.5,25.1,40.8,81.9,96.5,45.1,46.8,571.9,7.0,5.0,6.2,7.9,7.5,5.5,3.1,5.8,8.0,9.0,6.6,7.0,78.6,149.0,163.0,200.0,220.0,244.0,262.0,310.0,282.0,219.0,180.0,146.0,138.0,2524.0
38,Ulsan,South Korea,35.5391697,129.3119136,3951.775367800024,13.0,5,7.3,9.2,13.2,19.2,23.4,26.0,28.9,30.0,25.9,21.9,15.8,9.9,19.2,-2.3,-0.7,3.2,8.2,12.8,17.3,21.8,22.7,17.9,11.5,5.1,-0.3,9.8,34.3,42.6,65.8,91.1,108.1,176.8,232.3,240.3,168.2,53.5,41.1,23.0,1277.1,5.3,6.3,8.1,8.4,9.2,10.0,13.5,12.1,10.3,5.7,5.1,3.9,97.9,190.7,176.4,187.5,207.2,215.4,172.7,151.5,167.3,150.0,193.7,182.0,194.6,2188.8
39,Johor Bahru,Malaysia,1.4953041,103.7550839,166.2702297108079,15.0,3,31.0,32.0,32.5,32.8,32.5,32.1,31.5,31.5,31.5,31.8,31.3,30.6,31.8,21.9,22.0,22.4,22.9,23.1,22.9,22.4,22.4,22.4,22.6,22.7,22.4,22.5,162.6,139.8,203.4,232.8,215.3,148.1,177.0,185.9,190.8,217.7,237.6,244.5,2355.5,11.0,9.0,13.0,15.0,15.0,12.0,13.0,13.0,13.0,16.0,17.0,15.0,162.0,200.93136538713364,195.50198259992922,227.96452092726665,220.52536463571928,216.8789669498998,208.86240559959674,209.6812691113256,215.60433262897183,191.69169316100786,206.6515614860595,185.45241180024033,192.56707499146304,2472.312949278614
40,Atlanta(GA),United States,33.749098700000005,-84.39018490000002,3752.728554266473,312.0,359,11.3,13.7,18.1,22.5,26.6,30.2,31.7,31.2,27.9,22.6,17.6,12.2,22.2,1.3,3.2,6.7,10.8,15.7,20.1,21.8,21.5,18.2,12.2,6.9,2.5,11.8,107.0,119.0,122.0,85.0,93.0,100.0,134.0,99.0,114.0,87.0,104.0,99.0,1263.0,10.9,9.8,9.7,8.6,9.3,9.9,11.7,9.7,7.5,6.9,8.8,10.5,113.3,164.0,171.7,220.5,261.2,288.6,284.8,273.8,258.6,227.5,238.5,185.1,164.0,2738.3
41,Samara,Russia,53.198627,50.113987,5915.417426856242,78.0,1014,-6.8,-6.1,0.4,12.0,20.7,25.3,26.9,24.9,18.5,9.8,0.1,-5.4,10.0,-12.8,-12.8,-6.7,2.9,9.8,14.9,16.7,14.7,9.3,3.1,-4.5,-10.8,2.0,53.0,42.0,34.0,39.0,36.0,56.0,57.0,46.0,44.0,53.0,52.0,51.0,563.0,4.0,3.0,5.0,11.0,14.0,15.0,14.0,12.0,14.0,14.0,10.0,6.0,122.0,64.0,102.0,149.0,214.0,305.0,303.0,310.0,275.0,190.0,108.0,47.0,46.0,2113.0
42,Toronto,Canada,43.6534817,-79.38393470000003,4854.045695411088,90.0,532,-0.7,0.4,4.7,11.5,18.4,23.8,26.6,25.5,21.0,14.0,7.5,2.1,12.9,-6.7,-5.6,-1.9,4.1,9.9,14.9,18.0,17.4,13.4,7.4,2.3,-3.1,5.9,61.5,55.4,53.7,68.0,82.0,70.9,63.9,81.1,84.7,64.4,84.1,61.5,831.1,15.4,11.6,12.6,12.6,12.7,11.0,10.4,10.2,11.1,11.7,13.0,13.2,145.5,85.9,111.3,161.0,180.0,227.7,259.6,279.6,245.6,194.4,154.3,88.9,78.1,2066.3
43,Helsinki,Finland,60.1674098,24.9425769,6690.3107191041045,26.0,0,-1.3,-1.9,1.6,7.6,14.4,18.5,21.5,19.8,14.6,9.0,3.7,0.5,9.0,-6.5,-7.4,-4.1,0.8,6.3,10.9,14.2,13.1,8.7,4.3,-0.6,-4.5,2.9,52.0,36.0,38.0,32.0,37.0,57.0,63.0,80.0,56.0,76.0,70.0,58.0,655.0,19.0,17.0,15.0,11.0,11.0,14.0,12.0,15.0,14.0,16.0,18.0,20.0,182.0,38.0,70.0,138.0,194.0,284.0,297.0,291.0,238.0,150.0,93.0,36.0,29.0,1858.0
44,Bursa,Turkey,40.1827657,29.0677305,4468.11968438699,236.0,20,9.4,10.4,13.7,18.9,23.8,28.3,30.8,30.9,27.2,21.9,16.5,11.5,20.3,1.6,2.1,3.5,7.1,11.3,14.8,17.1,17.1,13.6,10.1,6.3,3.4,9.0,89.3,76.1,69.6,62.9,49.6,33.8,21.6,16.5,41.7,66.8,78.0,101.0,706.9,14.5,13.2,12.2,11.1,8.7,5.8,2.9,2.8,5.0,9.0,11.0,14.1,110.3,86.8,96.1,130.2,174.0,241.8,297.0,334.8,313.1,237.0,173.6,123.0,89.9,2297.3
45,Los Angeles(CA),United States,34.0536909,-118.2427666,3786.597661601977,90.0,19,20.1,20.3,21.2,22.6,23.6,25.6,28.4,29.1,28.4,25.8,22.7,19.8,24.0,8.8,9.6,10.6,11.9,13.9,15.7,17.6,17.8,17.3,14.8,11.1,8.6,13.2,79.0,97.0,62.0,23.0,6.6,2.3,0.25,1.0,6.1,17.0,26.0,59.0,379.0,6.1,6.4,5.5,3.2,1.3,0.6,0.3,0.3,1.0,2.5,3.3,5.2,35.7,225.3,222.5,267.0,303.5,276.2,275.8,364.1,349.5,278.5,255.1,217.3,219.4,3254.2
46,Dublin,Ireland,53.3497645,-6.2602732,5932.2231500819835,11.0,2,8.1,8.3,10.2,12.1,14.8,17.6,19.5,19.2,17.0,13.6,10.3,8.3,13.3,2.4,2.3,3.4,4.6,6.9,9.6,11.7,11.5,9.8,7.3,4.5,2.8,6.4,62.6,48.8,52.7,54.1,59.5,66.7,56.2,73.3,59.5,79.0,72.9,72.7,758.0,12.0,10.0,11.0,10.0,11.0,10.0,10.0,11.0,10.0,11.0,11.0,12.0,129.0,58.9,76.3,108.5,159.0,192.2,174.0,164.3,158.1,129.0,102.3,72.0,52.7,1447.3
47,Acapulco,Mexico,16.868049499999998,-99.8940182,1875.6415267892853,63.0,1,30.4,30.4,30.4,30.8,31.6,31.9,32.3,32.2,31.6,31.7,31.4,30.9,31.3,23.3,23.5,23.5,24.0,25.1,25.2,25.1,25.1,24.7,25.1,24.8,24.1,24.5,14.8,5.8,2.2,3.2,26.1,263.3,246.9,295.2,309.6,138.8,20.1,10.8,1336.8,1.0,0.4,0.3,0.2,2.6,12.4,12.4,13.6,14.3,7.9,1.7,0.8,67.6,272.2,249.4,287.0,273.5,252.2,205.9,223.5,230.5,194.0,244.8,256.8,255.3,2945.1
48,Mogadishu,Somalia,2.0349312,45.3419183,226.27402551072385,13.0,0,30.2,30.2,30.9,32.2,31.2,29.6,28.6,28.6,29.4,30.2,30.6,30.8,30.2,23.0,23.4,24.9,25.6,24.9,23.7,23.1,23.0,23.4,24.3,24.2,23.5,23.9,0.0,0.0,8.0,61.0,61.0,82.0,64.0,44.0,25.0,32.0,43.0,9.0,428.0,0.3,0.1,0.6,4.8,6.7,12.7,13.3,10.2,4.9,3.9,4.1,1.5,63.0,266.6,251.4,282.1,261.0,272.8,219.0,226.3,254.2,264.0,266.6,261.0,257.3,3082.3
49,Nizhny Novgorod,Russia,56.328571,44.003506,6263.451320337817,141.0,898,-5.9,-5.3,1.1,10.9,18.7,22.6,24.7,22.1,15.6,8.0,-0.5,-4.7,8.9,-11.6,-11.7,-5.8,2.1,7.9,12.6,14.8,12.6,7.6,2.1,-4.8,-9.9,1.3,47.0,38.0,37.0,36.0,46.0,76.0,73.0,69.0,61.0,64.0,55.0,55.0,657.0,5.0,4.0,5.0,13.0,17.0,19.0,18.0,18.0,18.0,18.0,10.0,6.0,151.0,43.0,79.0,145.0,196.0,275.0,287.0,280.0,238.0,152.0,81.0,38.0,25.0,1839.0
50,Lima,Peru,-12.0621065,-77.03652559999998,1341.245047446355,138.0,7,26.1,26.8,26.3,24.5,22.0,20.1,19.1,18.8,19.1,20.3,22.1,24.4,22.5,19.4,19.8,19.5,17.9,16.4,15.6,15.2,14.9,14.9,15.5,16.6,18.2,17.2,0.8,0.4,0.4,0.1,0.3,0.7,1.0,1.5,0.7,0.2,0.1,0.2,6.4,0.7,0.7,0.7,0.3,1.1,2.3,3.0,4.1,3.1,1.2,0.4,0.5,18.2,179.1,169.0,139.2,184.0,116.4,50.6,28.6,32.3,37.3,65.3,89.0,139.2,1230.0
51,Richmond(VA),United States,37.53850870000001,-77.43428,4174.09172124263,40.0,48,8.6,10.7,15.6,21.3,25.5,30.1,32.1,30.9,27.3,21.7,16.3,10.4,20.9,-2.1,-0.8,2.8,7.8,12.8,18.1,20.5,19.7,15.6,9.1,4.1,-0.3,8.9,77.0,70.0,103.0,83.0,96.0,100.0,115.0,118.0,105.0,76.0,82.0,83.0,1107.0,9.7,8.9,10.3,10.0,10.8,10.0,11.4,9.1,8.4,7.4,8.3,9.7,114.0,172.5,179.7,233.3,261.6,288.0,306.4,301.4,278.9,237.9,222.8,183.5,163.0,2829.0
52,Surabaya,Indonesia,-7.2459717,112.73782659999998,805.7152916500486,3.0,5,31.8,31.5,31.6,31.4,31.6,31.2,31.3,30.1,32.7,33.4,33.1,31.9,31.8,24.1,24.2,24.0,24.8,24.1,23.5,23.0,22.5,22.9,23.7,24.1,23.8,23.7,327.0,275.0,283.0,181.0,159.0,47.0,17.0,15.0,22.0,101.0,105.0,219.0,1751.0,17.0,18.0,19.0,15.0,13.0,7.0,5.0,3.0,4.0,11.0,12.0,23.0,147.0,140.6,123.6,143.2,155.8,188.9,199.3,223.8,245.5,228.8,221.0,182.6,138.1,2191.2
53,Tucson(AZ),United States,32.2228765,-110.9748477,3583.0203886941754,720.0,231,18.6,20.3,23.4,27.8,33.1,37.9,37.6,36.3,34.7,29.3,23.1,18.2,28.4,4.3,5.7,7.9,11.1,15.8,20.7,23.6,22.9,20.3,14.1,7.8,3.9,13.2,24.0,22.0,19.0,7.9,5.8,5.1,57.0,61.0,33.0,23.0,14.0,24.0,294.0,4.9,4.1,3.9,2.0,1.8,1.7,9.8,9.7,4.4,3.2,2.7,4.7,52.9,259.9,258.2,320.7,357.2,400.8,396.9,342.7,335.6,316.4,307.4,264.4,245.8,3806.0
54,Chengdu,China,30.662420500000003,104.0633219,3409.5055982421145,509.0,1067,9.4,11.8,16.3,21.9,26.6,28.1,29.8,29.6,25.8,20.9,16.3,10.7,20.6,2.9,5.1,8.1,12.7,17.3,20.6,22.2,21.7,18.9,14.8,9.8,4.5,13.2,8.9,12.9,22.4,47.6,76.9,114.3,208.1,197.2,111.0,35.5,14.8,6.1,855.7,7.0,8.5,10.9,13.0,14.7,15.2,17.6,15.8,15.6,13.1,7.7,5.2,144.3,53.3,51.4,83.1,113.9,121.7,117.2,131.9,155.0,77.6,59.4,57.2,51.6,1073.3
55,Tripoli,Libya,32.896671999999995,13.1777923,3657.943029890109,14.0,0,17.9,19.1,20.7,23.7,27.1,30.4,31.7,32.6,31.0,27.7,23.3,19.3,25.4,8.9,9.5,11.2,13.7,16.7,20.1,21.7,22.7,21.4,18.0,13.4,9.9,15.6,62.1,32.2,29.6,14.3,4.6,1.3,0.7,0.1,16.7,46.6,58.2,67.5,333.9,9.4,6.4,5.8,3.3,1.5,0.6,0.2,0.0,2.3,6.8,6.9,9.1,57.4,170.5,189.3,226.3,255.0,306.9,297.0,356.5,337.9,258.0,226.3,186.0,164.3,2974.0
56,Hamburg,Germany,53.550341,10.000654,5954.526239286106,22.0,13,3.5,4.4,8.0,12.3,17.5,19.9,22.1,22.2,17.9,13.0,7.5,4.6,13.2,-1.4,-1.2,1.1,3.3,7.4,10.5,12.7,12.5,9.6,6.0,2.4,0.0,6.2,67.8,49.9,67.7,43.0,57.4,78.6,76.7,78.9,67.4,67.0,69.2,68.9,792.6,12.1,9.2,11.3,8.9,9.6,11.3,11.4,10.2,10.8,10.5,11.7,12.4,129.4,46.9,69.0,108.8,171.6,223.4,198.7,217.5,203.1,144.6,107.9,53.0,37.4,1581.9
57,Las Vegas(NV),United States,36.1672559,-115.1485163,4021.6153667354843,617.0,380,14.4,16.9,21.3,25.7,31.6,37.1,40.1,38.9,34.4,27.0,19.1,13.7,26.7,4.1,6.3,9.7,13.4,18.8,23.7,27.2,26.3,21.7,14.7,8.1,3.7,14.8,14.0,19.0,11.0,3.8,3.0,1.8,10.0,8.4,6.4,6.9,9.1,13.0,106.0,3.1,4.0,2.9,1.6,1.2,0.6,2.5,2.6,1.6,1.7,1.7,3.0,26.5,245.2,246.7,314.6,346.1,388.1,401.7,390.9,368.5,337.1,304.4,246.0,236.0,3825.3
58,Chihuahua,Mexico,28.5000001,-106.0000001,3169.055420489417,1578.0,389,18.1,21.2,24.2,27.9,32.2,34.0,32.1,30.3,29.2,26.8,21.9,18.2,26.3,2.0,4.5,7.1,10.4,14.9,18.6,19.1,18.2,16.0,10.7,5.5,2.4,10.8,9.9,3.7,7.7,12.9,26.1,34.7,94.7,89.3,66.4,21.6,8.7,9.9,385.7,2.5,1.6,1.5,2.5,4.0,6.7,11.4,12.0,8.0,4.0,2.0,2.3,58.4,185.0,204.0,254.0,278.0,299.0,273.0,240.0,242.0,229.0,238.0,191.0,174.0,2807.0
59,Lubumbashi,Democratic Republic of the Congo,-11.6642316,27.4826264,1297.003377127144,1263.0,1168,26.0,26.0,26.0,27.0,26.0,25.0,25.0,27.0,30.0,31.0,28.0,26.0,27.0,16.0,16.0,16.0,14.0,10.0,8.0,8.0,9.0,12.0,15.0,16.0,16.0,13.0,253.0,257.0,202.0,60.0,4.0,1.0,0.0,0.0,4.0,37.0,163.0,257.0,1238.0,24.0,23.0,21.0,9.0,2.0,0.0,0.0,0.0,1.0,5.0,17.0,24.0,126.0,133.4268538721725,126.33807091139562,146.96184055873368,154.00510707665458,172.47957870521407,180.49790925806678,190.7807992822398,192.8149889163348,183.15258872285924,174.62664129608964,148.10794282029002,124.54133152459687,1927.7336529446475
60,Boston(MA),United States,42.3602534,-71.0582912,4710.24526945792,8.0,1,2.1,3.7,7.4,13.1,18.9,24.4,27.4,26.4,22.4,16.3,10.8,5.1,14.9,-5.4,-4.1,-0.5,4.8,9.9,15.3,18.6,18.1,14.1,8.1,3.3,-2.1,6.7,85.0,83.0,110.0,95.0,89.0,93.0,87.0,85.0,87.0,100.0,101.0,96.0,1112.0,11.3,9.8,11.6,11.2,12.0,10.9,9.6,9.4,8.6,9.4,10.6,11.6,126.0,163.4,168.4,213.7,227.2,267.3,286.5,300.9,277.3,237.1,206.3,143.2,142.3,2633.6
61,Mandalay,Myanmar,21.981274600000006,96.082375,2444.206216700903,83.0,334,29.6,32.7,36.6,38.9,36.9,35.2,35.1,34.3,34.0,33.4,31.1,29.1,33.9,13.7,16.0,20.4,24.7,25.9,26.1,26.2,25.8,25.4,24.0,19.9,15.4,22.0,0.9,3.8,5.8,40.4,130.0,99.5,74.7,132.9,157.1,130.7,36.4,4.9,817.1,0.4,0.4,0.4,3.3,8.3,7.2,5.9,8.7,8.1,6.8,2.8,0.7,53.0,309.0,280.0,301.0,291.0,267.0,208.0,182.0,168.0,215.0,223.0,269.0,278.0,2991.0
62,Istanbul,Turkey,41.0096334,28.9651646,4560.063177633246,61.0,0,8.4,9.0,10.9,15.4,20.0,24.6,26.6,26.8,23.7,19.1,14.8,10.8,17.5,3.1,3.1,4.2,7.6,12.1,16.5,19.4,20.1,16.8,12.9,8.9,5.5,10.8,106.0,77.7,71.4,45.9,34.4,36.0,33.3,39.9,61.7,88.0,100.9,122.2,817.4,17.3,15.2,13.8,10.3,8.0,6.2,4.3,5.0,7.6,11.2,13.0,17.1,129.0,89.9,101.7,142.6,195.0,272.8,318.0,356.5,328.6,246.0,176.7,120.0,83.7,2431.5
63,Rome,Italy,41.8933203,12.4829321,4658.324677655503,46.0,25,12.6,14.0,16.5,18.9,23.9,28.1,31.5,31.7,27.5,22.4,16.5,13.2,21.4,2.1,2.7,4.3,6.8,10.8,14.3,16.9,17.3,14.3,10.5,5.8,3.1,9.1,69.5,75.8,59.0,76.2,49.1,40.7,21.0,34.1,71.8,107.0,109.9,84.4,798.5,7.6,7.4,7.8,8.8,5.6,4.1,2.3,3.2,5.6,7.7,9.1,8.5,77.7,120.9,132.8,167.4,201.0,263.5,285.0,331.7,297.6,237.0,195.3,129.0,111.6,2473.0
64,Berlin,Germany,52.50152170000001,13.402549800000005,5837.90285415921,38.0,144,2.8,4.3,8.7,14.3,19.4,22.0,24.6,24.2,19.3,13.8,7.3,3.3,13.7,-2.8,-2.4,0.4,3.5,8.2,11.2,13.5,13.0,9.6,5.4,1.4,-1.6,5.0,37.2,30.1,39.3,33.7,52.6,60.2,52.5,53.0,39.5,32.2,37.8,46.1,515.2,5.925721474389603,4.75059890047433,5.798378240376619,4.889633880872272,5.575698011137234,6.268223541537735,6.222364210485061,5.85308625079976,5.937370456295204,5.5831258622682665,6.340068877527655,6.112691602762637,69.25696130892638,57.6,71.5,119.4,191.2,229.6,230.0,232.4,217.3,162.3,114.7,54.9,46.9,1727.6
65,Concepcion,Chile,-36.8270795,-73.05023990000002,4094.9844035358333,36.0,2,22.8,22.5,21.0,18.3,15.4,13.7,13.2,14.0,15.5,17.2,19.4,21.4,17.9,10.9,10.6,9.8,8.1,7.5,6.6,5.8,6.0,6.1,7.4,8.7,10.1,8.1,15.7,15.4,25.4,72.4,182.7,230.7,198.4,153.6,84.1,57.2,33.4,21.3,1090.3,2.6,2.6,3.7,7.6,14.5,16.1,15.3,13.5,10.2,7.6,4.8,3.5,102.0,341.0,278.0,255.0,191.0,133.0,114.0,129.0,162.0,197.0,254.0,296.0,331.0,2681.0
66,Lahore,Pakistan,31.5656822,74.3141829,3509.943716714454,219.0,1010,19.8,22.0,27.1,33.9,38.6,40.4,36.1,35.0,35.0,32.9,27.4,21.6,30.8,5.9,8.9,14.0,19.6,23.7,27.4,26.9,26.4,24.4,18.2,11.6,6.8,17.8,23.0,28.6,41.2,19.7,22.4,36.3,202.1,163.9,61.1,12.4,4.2,13.9,628.8,0.9797665529989256,1.5324930689907748,2.2384943745497496,2.951023509065544,3.6177067047264773,5.87892812988604,11.072339497292822,9.61915560598249,5.416952130005059,2.6355892563726826,1.801155973284309,1.0740733977760613,48.859867756935714,218.8,215.0,245.8,276.6,308.3,269.0,227.5,234.9,265.6,290.0,259.6,222.9,3034.0
67,Nashville-Davidson(TN),United States,36.1622296,-86.7743531,4021.0564676756912,123.0,610,8.3,11.0,16.1,21.4,25.7,30.0,31.8,31.7,28.0,22.1,15.7,9.7,21.0,-2.0,-0.2,3.9,8.6,13.8,18.6,20.8,20.2,15.9,9.4,4.1,-0.4,9.4,95.0,100.0,104.0,102.0,140.0,105.0,92.0,81.0,87.0,77.0,109.0,108.0,1200.0,10.3,10.3,10.7,10.8,11.7,10.0,10.2,8.4,7.5,8.0,9.8,11.2,118.9,139.6,145.2,191.3,231.5,261.8,277.7,279.0,262.1,226.4,216.8,148.1,130.6,2510.1
68,Denver-Aurora(CO),United States,39.7392364,-104.9848623,4418.801476408778,1607.0,1199,7.0,8.0,13.0,17.0,22.0,28.0,32.0,30.0,26.0,19.0,12.0,6.0,18.0,-8.0,-7.0,-3.0,1.0,6.0,11.0,14.0,13.0,8.0,2.0,-3.0,-8.0,2.0,12.0,12.0,38.0,53.0,72.0,51.0,62.0,52.0,37.0,26.0,30.0,17.0,462.0,2.4872621295673216,1.9830332928970287,1.640687965698853,1.3761384479201941,3.015855633056822,8.096397341382024,13.153159101036211,11.786124319870506,8.951157878954783,4.528020231333974,1.9199637916224734,2.0910357754857873,61.014857238926986,115.4049787294689,124.88515492254035,150.5806055402682,156.36352003136528,169.18412883709573,148.096030191101,135.47240584322762,136.35244742761358,123.61801427849565,133.07883461970403,122.0472888438014,108.6379039123311,1623.721313177013
69,Bangkok,Thailand,13.7538929,100.8160803,1529.3631120926173,0.0,28,32.5,33.3,34.3,35.4,34.4,33.6,33.2,32.9,32.8,32.6,32.4,31.7,33.3,22.6,24.4,25.9,26.9,26.3,26.1,25.7,25.5,25.0,24.8,23.9,22.0,24.9,13.3,20.0,42.1,91.4,247.7,157.1,175.1,219.3,334.3,292.1,49.5,6.3,1648.2,1.8,2.4,3.6,6.6,16.4,16.3,17.4,19.6,21.2,17.7,5.8,1.1,129.9,272.5,249.9,269.0,256.7,216.4,178.0,171.8,160.3,154.9,198.1,234.2,262.0,2623.8
70,Louisville(KY),United States,38.2542376,-85.759407,4253.677143775521,141.0,733,6.1,8.8,14.4,20.4,25.1,29.6,31.5,31.3,27.5,21.2,14.4,7.7,19.9,-2.9,-1.2,3.2,8.5,13.9,18.9,21.1,20.3,15.8,9.4,4.2,-1.1,9.2,82.0,81.0,106.0,102.0,134.0,96.0,107.0,85.0,77.0,82.0,91.0,97.0,1141.0,10.4,10.1,11.9,11.7,12.6,10.3,10.0,8.0,8.0,7.7,10.1,12.0,122.8,140.5,148.9,188.6,221.1,263.4,288.9,293.6,272.6,234.3,208.5,135.7,118.3,2514.4
71,Rotterdam-Hague,Netherlands,51.95612425,4.439270829036536,5777.257424714329,-6.0,20,6.0,6.6,9.9,13.5,17.5,19.9,22.2,22.1,18.9,14.7,9.9,6.6,14.0,0.8,0.5,2.6,4.3,7.8,10.6,13.1,12.8,10.6,7.5,4.2,1.4,6.4,69.1,57.9,64.9,42.6,58.3,65.2,74.0,81.0,87.1,90.1,87.1,78.3,855.6,12.0,10.0,12.0,9.0,9.0,10.0,10.0,10.0,12.0,12.0,13.0,13.0,131.0,62.5,83.8,124.0,174.9,213.9,203.6,213.1,196.6,137.6,106.9,60.4,46.7,1623.8
72,Fukuoka-Kitakyushu,Japan,33.6294274,130.4904537,3739.4217128415135,27.0,8,9.9,11.1,14.4,19.5,23.7,26.9,30.9,32.1,28.3,23.4,17.8,12.6,20.9,3.5,4.1,6.7,11.2,15.6,19.9,24.3,25.0,21.3,15.4,10.2,5.6,13.6,68.0,71.5,112.5,116.6,142.5,254.8,277.9,172.0,178.4,73.7,84.8,59.8,1612.3,11.0,10.1,12.9,11.0,10.7,12.4,11.9,10.4,10.9,7.3,9.7,10.3,128.7,102.1,121.0,149.8,181.6,194.6,149.4,173.5,202.1,162.8,177.1,136.3,116.7,1867.0
73,Antananarivo,Madagascar,-18.9100122,47.5255809,2102.697419426711,1287.0,158,26.6,26.5,26.5,25.5,23.7,21.2,20.6,21.7,24.2,26.0,27.0,27.2,24.7,17.3,17.3,17.0,15.4,13.2,10.9,9.9,10.3,11.4,13.6,15.2,16.7,14.0,340.0,290.0,191.0,55.0,19.0,4.0,8.0,6.0,10.0,68.0,135.0,311.0,1437.0,19.0,17.0,14.0,7.0,5.0,5.0,7.0,6.0,4.0,8.0,11.0,15.0,118.0,210.5,178.0,199.1,220.5,228.8,206.1,213.9,235.0,249.5,251.0,232.7,201.1,2626.2
74,Montreal,Canada,45.4972159,-73.61036419999998,5059.059584532151,132.0,238,-5.3,-3.2,2.5,11.6,18.9,23.9,26.3,25.3,20.6,13.0,5.9,-1.4,11.5,-14.0,-12.2,-6.5,1.2,7.9,13.2,16.1,14.8,10.3,3.9,-1.7,-9.3,2.0,77.2,62.7,69.1,82.2,81.2,87.0,89.3,94.1,83.1,91.3,96.4,86.8,1000.3,16.7,13.7,13.6,12.9,13.6,13.3,12.3,11.6,11.1,13.3,14.8,16.3,163.3,101.2,127.8,164.3,178.3,228.9,240.3,271.5,246.3,182.2,143.5,83.6,83.6,2051.3
75,Detroit(MI),United States,42.3315509,-83.04664029999998,4707.053697075905,182.0,640,0.0,1.8,7.7,15.1,21.1,26.3,28.6,27.4,23.3,16.4,9.3,2.3,15.0,-7.2,-6.1,-1.9,4.1,9.7,15.3,17.7,17.0,12.6,6.3,1.3,-4.4,5.4,50.0,51.0,58.0,74.0,86.0,89.0,86.0,76.0,83.0,64.0,71.0,62.0,850.0,13.1,10.6,11.7,12.2,12.1,10.2,10.4,9.6,9.5,9.8,11.6,13.7,134.5,119.9,138.3,184.9,217.0,275.9,301.8,317.0,283.5,227.6,176.0,106.3,87.7,2435.9
76,Douala,Cameroon,4.0429407999999984,9.706203,449.5545056842934,19.0,0,32.2,32.8,32.5,32.1,31.4,29.9,28.1,27.7,29.0,29.8,30.9,31.7,30.7,23.4,24.1,23.9,23.5,23.2,23.0,22.7,22.8,22.8,22.5,23.2,23.3,23.2,34.2,54.5,155.2,241.2,276.2,354.1,681.4,687.5,561.2,406.6,123.1,27.5,3602.7,5.0,9.0,15.0,18.0,21.0,23.0,27.0,30.0,26.0,24.0,12.0,5.0,215.0,193.3,179.1,171.9,176.5,175.8,123.1,72.0,53.2,90.8,131.2,162.1,184.2,1713.2
77,Wuhan,China,30.595105100000005,114.2999353,3402.020467277065,31.0,563,8.1,10.7,15.2,22.1,27.1,30.2,32.9,32.5,28.5,23.0,16.8,10.8,21.5,1.0,3.5,7.4,13.6,18.9,22.9,26.0,25.3,20.7,14.7,8.4,2.9,13.8,48.7,65.5,91.0,135.7,166.8,218.2,228.1,117.5,74.0,80.9,60.0,29.6,1316.0,9.5,9.8,13.1,12.5,12.2,11.8,11.6,9.6,7.5,9.0,8.0,6.9,121.5,101.9,97.0,121.8,152.8,181.0,170.9,220.2,226.4,175.8,151.9,139.3,126.5,1865.5
78,Changsha,China,28.230205600000005,112.9335861,3139.0556408528114,59.0,568,8.3,10.8,15.1,21.8,26.8,29.9,33.5,32.7,28.3,23.0,17.4,11.5,21.6,2.5,4.7,8.3,14.2,19.1,22.7,25.9,25.1,20.7,15.2,9.6,4.2,14.3,73.7,94.6,139.6,187.9,181.1,223.6,142.6,107.1,76.5,72.6,81.4,47.4,1428.1,13.6,14.0,17.8,18.8,16.3,13.3,9.7,9.9,9.8,11.1,10.2,9.4,153.9,76.2,63.0,69.4,88.3,122.8,144.8,238.3,229.6,160.0,133.4,115.7,103.2,1544.7
79,Belo Horizonte,Brazil,-19.9227318,-43.9450948,2215.3067010602176,860.0,316,28.4,29.0,28.5,27.7,25.8,24.8,24.7,26.1,27.4,28.1,27.7,27.8,27.2,19.8,19.9,19.7,18.6,16.4,15.0,14.7,15.7,17.1,18.5,18.9,19.4,17.8,329.1,181.4,198.0,74.7,28.1,9.7,7.9,14.8,55.5,104.7,239.8,358.9,1602.6,16.0,11.0,11.0,6.0,3.0,1.0,1.0,2.0,4.0,8.0,14.0,18.0,95.0,176.0,190.8,194.9,210.7,221.2,229.9,240.5,241.5,202.5,196.5,166.9,153.3,2424.7
80,Mumbai,India,18.9387711,72.8353355,2105.895263202589,11.0,0,30.2,30.2,31.5,32.7,33.8,32.2,30.0,29.7,30.6,33.0,33.5,32.2,31.6,19.3,20.2,22.7,25.0,27.1,26.5,25.4,25.1,25.0,24.8,23.2,20.9,23.8,0.9,0.2,0.4,0.5,20.2,530.2,711.6,493.8,330.4,78.4,14.9,2.6,2184.1,0.1,0.0,0.1,0.1,0.7,13.8,21.2,19.7,13.4,3.4,0.5,0.1,73.2,282.1,271.2,282.1,279.0,272.8,138.0,80.6,77.5,147.0,238.7,267.0,275.9,2611.9
81,Bratislava,Slovakia,48.1516988,17.1093063,5354.224615876887,156.0,371,2.7,5.1,10.3,16.7,21.8,24.9,27.5,27.0,21.7,15.6,8.2,3.3,15.4,-3.4,-2.3,1.3,5.4,10.2,13.4,15.4,15.0,11.0,6.1,1.8,-1.9,6.0,39.0,37.0,38.0,34.0,55.0,57.0,53.0,59.0,55.0,38.0,54.0,46.0,565.0,6.5031436856585785,5.87411389673515,6.301509615838912,6.58700715457266,7.875310875280768,8.184061757041885,7.045798872337606,6.500579016386469,6.327077415624816,5.6490418302318,6.960806315697731,6.889957244307793,80.46649131502528,65.1,81.9,151.9,204.0,263.5,270.0,275.9,269.7,207.0,142.6,60.0,46.5,2038.1
82,Davao,Philippines,7.0644576,125.6083647,785.5318446155953,10.0,1,30.8,31.2,32.2,33.0,32.6,31.8,31.5,31.7,31.9,32.3,32.1,31.4,31.9,23.3,23.3,23.6,24.2,24.6,24.2,23.9,24.0,23.9,23.9,23.9,23.7,23.9,140.3,109.4,108.4,124.7,158.7,186.7,165.0,170.0,170.4,174.8,138.1,112.6,1759.1,14.0,12.0,11.0,11.0,16.0,18.0,16.0,15.0,15.0,16.0,16.0,14.0,174.0,148.26856208046496,143.4295400281347,163.69615220802646,172.26140059229107,174.08199427762008,159.50241096892168,179.42971304290734,171.454805895481,156.05193979590484,161.47330622586938,143.82869781250804,141.46983211088215,1914.9483550390119
83,Jinan,China,36.6507007,117.1140042,4075.3719758081775,121.0,178,3.9,6.9,13.3,21.6,27.1,31.6,31.9,30.6,26.9,21.2,13.0,6.0,19.5,-3.9,-1.6,3.9,11.3,16.8,21.6,23.6,22.5,17.7,11.8,4.5,-1.7,10.5,5.7,8.5,15.3,27.4,46.6,78.3,201.3,170.3,58.5,36.5,16.2,8.2,672.8,2.9,3.1,3.9,5.1,6.5,8.2,13.3,11.6,6.5,4.6,3.9,3.2,72.8,170.9,172.4,212.8,242.9,275.2,258.2,214.5,219.0,221.1,215.1,177.1,167.6,2546.8
84,Budapest,Hungary,47.48138955,19.14607278448202,5279.689627993967,143.0,424,2.9,5.5,10.6,16.4,21.9,24.6,26.7,26.6,21.6,15.4,7.7,4.0,15.3,-1.6,0.0,3.5,7.6,12.1,15.1,16.8,16.5,12.8,7.9,2.9,0.0,7.8,37.0,29.0,30.0,42.0,62.0,63.0,45.0,49.0,40.0,39.0,53.0,43.0,532.0,7.3,6.1,6.4,6.6,8.6,8.7,7.2,6.9,5.9,5.3,7.8,7.2,84.0,62.0,93.0,137.0,177.0,234.0,250.0,271.0,255.0,187.0,141.0,69.0,52.0,1988.0
85,Shenzhen,China,22.555454,114.0543297,2508.0520529647188,103.0,4,19.8,20.2,22.7,26.3,29.5,31.1,32.3,32.3,31.3,29.2,25.4,21.5,26.6,12.5,13.8,16.5,20.3,23.6,25.6,26.3,26.1,25.0,22.5,18.2,13.8,19.6,26.4,47.9,69.9,154.3,237.1,346.5,319.7,354.4,254.0,63.3,35.4,26.9,1935.8,7.1,10.1,10.8,12.7,15.6,18.5,17.0,18.3,14.8,7.6,5.6,6.0,144.1,138.7,92.4,94.9,104.6,146.4,160.3,215.6,182.5,169.9,189.6,175.8,166.9,1837.6
86,Johannesburg,South Africa,-26.205,28.049722,2913.863052720661,1747.0,445,25.6,25.1,24.0,21.1,18.9,16.0,16.7,19.4,22.8,23.8,24.2,25.2,21.9,14.7,14.1,13.1,10.3,7.2,4.1,4.1,6.2,9.3,11.2,12.7,13.9,10.1,125.0,90.0,91.0,54.0,13.0,9.0,4.0,6.0,27.0,72.0,117.0,105.0,713.0,15.9,11.2,11.9,8.6,2.9,2.0,1.0,2.1,3.8,9.8,15.2,14.9,99.3,250.1,224.8,238.8,236.9,276.0,266.9,283.9,284.1,280.8,269.5,248.7,263.9,3124.4
87,Mexico City,Mexico,19.4326296,-99.1331785,2160.8098228828803,2230.0,247,21.7,23.4,25.7,26.8,26.8,25.3,23.8,23.9,23.3,22.9,22.9,21.9,24.0,7.4,8.5,10.4,12.3,13.2,13.5,12.5,12.7,12.7,11.2,9.7,8.1,11.0,7.6,7.0,8.9,22.5,66.5,140.0,189.5,171.2,139.8,72.4,12.6,8.2,846.1,2.2,2.5,4.1,6.8,12.9,18.7,23.2,20.9,18.2,9.6,3.8,2.0,124.8,240.0,234.0,268.0,232.0,225.0,183.0,176.0,176.0,157.0,194.0,232.0,236.0,2555.0
88,Naples,Italy,40.8359336,14.2487826,4540.74864111407,30.0,2,13.0,13.5,15.7,18.1,23.0,26.7,29.9,30.3,26.9,22.1,17.1,14.1,20.8,4.4,4.5,6.3,8.4,12.6,16.2,18.8,19.1,16.0,12.1,7.8,5.6,11.0,104.4,97.9,85.7,75.5,49.6,34.1,24.3,41.6,80.3,129.7,162.1,121.4,1006.6,9.9,9.8,9.5,8.8,5.7,4.0,2.3,3.8,5.8,8.1,10.8,10.7,89.2,114.7,127.6,158.1,189.0,244.9,279.0,313.1,294.5,234.0,189.1,126.0,105.4,2375.4
89,Guangzhou,China,23.1301964,113.2592945,2571.960491972237,23.0,12,18.3,18.5,21.6,25.7,29.3,31.5,32.8,32.7,31.5,28.8,24.5,20.6,26.3,10.3,11.7,15.2,19.5,22.7,24.8,25.5,25.4,24.0,20.8,15.9,11.5,18.9,40.9,69.4,84.7,201.2,283.7,276.2,232.5,227.0,166.2,87.3,35.4,31.6,1736.1,7.5,11.2,15.0,16.3,18.3,18.2,15.9,16.8,12.5,7.1,5.5,4.9,149.2,118.5,71.6,62.4,65.1,104.0,140.2,202.0,173.5,170.2,181.8,172.7,166.0,1628.0
90,Asuncion,Paraguay,-25.2800459,-57.6343814,2811.0128494215774,78.0,812,33.5,32.6,31.6,28.4,25.0,23.1,23.2,24.8,26.4,29.2,30.7,32.3,28.3,22.8,22.3,21.3,18.6,15.7,13.8,13.1,14.3,15.9,18.6,20.1,21.8,17.9,147.2,129.2,117.9,166.0,113.3,82.4,39.4,72.6,87.7,130.8,164.4,150.3,1401.2,8.0,7.0,7.0,8.0,7.0,7.0,4.0,5.0,6.0,8.0,8.0,8.0,83.0,276.0,246.0,254.0,228.0,205.0,165.0,195.0,223.0,204.0,242.0,270.0,295.0,2803.0
91,Abu Dhabi,United Arab Emirates,24.4747961,54.3705762,2721.4731569800324,8.0,2,24.1,26.0,29.5,34.5,39.3,40.8,42.1,42.9,40.4,36.5,31.1,26.3,34.5,13.2,14.6,17.5,20.8,23.8,26.1,28.8,29.5,26.6,23.2,18.7,15.8,21.5,7.0,21.2,14.5,6.1,1.3,0.0,0.0,1.5,0.0,0.0,0.3,5.2,57.1,1.2,2.8,2.8,1.2,0.1,0.0,0.0,0.1,0.0,0.0,0.2,1.5,9.9,246.1,232.6,251.1,280.5,342.2,336.9,314.2,307.5,302.4,304.7,286.6,257.6,3462.4
92,Milan,Italy,45.4668,9.1905,5055.677490762822,137.0,118,5.9,9.0,14.3,17.4,22.3,26.2,29.2,28.5,24.4,17.8,10.7,6.4,17.7,-0.9,0.3,3.8,7.0,11.6,15.4,18.0,17.6,14.0,9.0,3.7,0.1,8.3,58.7,49.2,65.0,75.5,95.5,66.7,66.8,88.8,93.1,122.4,76.7,61.7,920.1,6.7,5.3,6.7,8.1,8.9,7.7,5.4,7.1,6.1,8.3,6.4,6.3,83.0,58.9,96.1,151.9,177.0,210.8,243.0,285.2,251.1,186.0,130.2,66.0,58.9,1915.1
93,Bordeaux,France,44.841225,-0.5800364,4986.116724527154,20.0,16,10.1,11.7,15.1,17.3,21.2,24.5,26.9,27.1,24.0,19.4,13.7,10.5,18.5,3.1,3.3,5.4,7.4,11.0,14.1,15.8,15.7,12.9,10.4,6.1,3.8,9.1,87.3,71.7,65.3,78.2,80.0,62.2,49.9,56.0,84.3,93.3,110.2,105.7,944.1,12.2,10.1,11.0,11.9,10.9,8.3,7.1,7.5,9.2,11.0,12.6,12.4,124.3,96.0,114.9,169.7,182.1,217.4,238.7,248.5,242.3,202.7,147.2,94.4,81.8,2035.4
94,New York(NY),United States,40.7127281,-74.0060152,4527.048814579364,10.0,0,3.5,5.3,9.8,16.2,21.6,26.3,28.9,28.1,24.0,17.7,12.1,6.1,16.7,-2.8,-1.7,1.8,7.1,12.2,17.6,20.4,19.9,16.0,10.0,5.3,0.0,8.9,93.0,78.0,111.0,114.0,106.0,112.0,117.0,113.0,109.0,112.0,102.0,102.0,1268.0,10.4,9.2,10.9,11.5,11.1,11.2,10.4,9.5,8.7,8.9,9.6,10.6,122.0,162.7,163.1,212.5,225.6,256.6,257.3,268.2,268.2,219.3,211.2,151.0,139.0,2534.7
95,Tabriz,Iran,38.0739964,46.29619520000001,4233.6352367631935,1397.0,558,2.3,4.9,10.6,17.0,22.8,28.8,32.8,32.7,28.3,20.7,12.0,5.2,18.2,-5.7,-3.9,0.6,6.0,10.7,15.4,19.3,19.1,14.5,8.4,2.1,-2.9,7.0,24.0,28.2,45.0,56.6,43.1,19.4,5.6,3.3,10.9,24.5,30.1,24.1,318.8,6.9,7.3,10.7,14.8,9.3,3.2,1.2,0.6,1.9,4.9,5.5,6.3,72.6,125.9,146.3,179.7,200.8,268.7,334.3,352.5,337.7,301.4,231.6,180.3,136.8,2796.0
96,Thessaloniki,Greece,40.6403167,22.9352716,4518.997034268135,12.0,3,9.1,11.0,14.5,19.2,24.6,29.6,31.9,30.8,27.1,21.1,15.1,10.7,20.4,1.4,2.5,4.9,8.0,12.9,17.5,19.8,19.1,15.8,11.6,7.0,3.0,10.3,41.0,28.3,39.3,28.7,39.3,27.9,26.8,17.6,42.7,47.1,34.9,48.5,422.1,8.8,8.3,9.8,7.4,8.0,5.5,3.8,3.6,6.3,7.3,7.3,9.0,85.1,98.7,102.6,147.2,202.6,252.7,296.4,325.7,295.8,229.9,165.5,117.8,102.6,2337.5
97,N'Djamena,Chad,12.1191543,15.0502758,1347.5884733825885,296.0,1062,32.4,35.2,38.7,41.0,39.9,37.2,33.5,31.6,33.7,36.9,35.8,33.5,35.8,14.3,16.6,21.0,24.8,25.8,24.7,23.1,22.4,22.7,21.8,17.8,14.8,20.8,0.0,0.0,0.3,10.3,25.8,51.0,143.8,174.4,84.3,20.3,0.1,0.0,510.3,0.0,0.0,1.0,3.0,6.0,9.0,13.0,15.0,9.0,3.0,1.0,0.0,60.0,297.6,277.2,282.1,273.0,285.2,258.0,213.9,201.5,228.0,285.2,300.0,303.8,3205.5
98,Birmingham(AL),United States,33.570499,-86.765783,3732.8691737262325,207.0,331,12.1,14.7,19.3,23.6,27.5,30.9,32.7,32.6,29.5,24.1,18.6,13.3,23.3,1.0,2.8,6.5,10.3,15.4,19.8,21.9,21.6,17.9,11.6,6.4,2.4,11.5,123.0,115.0,133.0,111.0,127.0,111.0,122.0,100.0,99.0,87.0,123.0,113.0,1364.0,10.5,10.0,10.2,9.1,10.2,11.0,11.7,9.6,7.4,7.6,9.1,10.4,116.8,149.8,159.8,219.1,247.6,282.6,280.7,264.3,260.7,223.8,231.9,166.3,154.4,2641.0
99,Tel Aviv,Israel,32.080480800000004,34.7805274,3567.186709278175,15.0,1,17.5,17.7,19.2,22.8,24.9,27.5,29.4,30.2,29.4,27.3,23.4,19.2,24.0,9.6,9.8,11.5,14.4,17.3,20.6,23.0,23.7,22.5,19.1,14.6,11.2,16.4,147.0,111.0,62.0,16.0,4.0,0.0,0.0,0.0,1.0,34.0,81.0,127.0,583.0,15.0,13.0,10.0,4.0,2.0,0.0,0.0,0.0,0.0,6.0,9.0,12.0,71.0,192.2,200.1,235.6,270.0,328.6,357.0,368.9,356.5,300.0,279.0,234.0,189.1,3311.0
100,Newcastle upon Tyne,United Kingdom,54.97384739999999,-1.6131572,6112.812929012165,56.0,12,6.6,7.2,9.5,11.9,15.0,17.6,20.1,19.8,17.2,13.3,9.4,6.7,12.9,0.9,0.9,2.3,3.7,6.1,9.0,11.1,11.0,9.0,6.3,3.4,1.1,5.4,52.3,41.8,44.6,52.7,44.2,55.4,54.0,60.8,55.4,60.9,72.0,57.0,651.1,11.4,9.3,9.7,9.5,9.2,9.7,9.0,9.6,9.3,11.3,12.3,11.7,122.0,58.6,80.3,115.5,150.3,181.7,164.8,172.3,167.3,134.5,102.8,66.4,51.2,1445.4
101,Ottawa,Canada,45.421106,-75.690308,5050.596549784726,71.0,381,-5.8,-3.1,2.4,11.4,19.0,24.1,26.6,25.4,20.5,12.8,5.5,-2.0,11.4,-14.4,-12.5,-6.8,1.5,8.0,13.3,15.7,14.5,10.1,4.0,-1.5,-9.2,1.9,62.9,49.7,57.5,71.1,86.6,92.7,84.4,83.8,92.7,85.9,82.7,69.5,919.5,16.0,11.7,11.5,13.2,14.5,12.4,11.6,11.2,12.9,14.9,15.2,15.6,160.7,99.3,131.3,167.1,189.8,229.8,254.2,279.0,249.3,177.6,139.4,84.3,82.6,2083.7
102,Valencia(VZL),Venezuela,10.156421,-67.999718,1129.3424880662558,456.0,35,16.4,17.1,19.3,20.8,23.4,27.1,29.7,30.2,27.9,24.3,19.8,17.0,22.8,7.1,7.8,9.7,11.5,14.6,18.6,21.5,21.9,19.1,15.2,10.8,8.1,13.8,37.0,36.0,33.0,38.0,39.0,22.0,8.0,20.0,70.0,77.0,47.0,48.0,475.0,4.4,3.9,3.6,4.8,4.3,2.6,1.1,2.4,5.0,5.0,4.3,4.8,46.3,171.0,171.0,215.0,234.0,259.0,276.0,315.0,288.0,235.0,202.0,167.0,155.0,2696.0
103,Valencia,Spain,39.4697065,-0.3763353,4388.831118949763,19.0,4,16.4,17.1,19.3,20.8,23.4,27.1,29.7,30.2,27.9,24.3,19.8,17.0,22.8,7.1,7.8,9.7,11.5,14.6,18.6,21.5,21.9,19.1,15.2,10.8,8.1,13.8,37.0,36.0,33.0,38.0,39.0,22.0,8.0,20.0,70.0,77.0,47.0,48.0,475.0,4.4,3.9,3.6,4.8,4.3,2.6,1.1,2.4,5.0,5.0,4.3,4.8,46.3,171.0,171.0,215.0,234.0,259.0,276.0,315.0,288.0,235.0,202.0,167.0,155.0,2696.0
104,Osaka-Kobe-Kyoto,Japan,34.80386944999999,135.51566283471678,3870.013710439548,44.0,14,9.5,10.2,13.7,19.9,24.5,27.8,31.6,33.4,29.3,23.3,17.6,12.3,21.1,2.8,2.9,5.6,10.7,15.6,20.0,24.3,25.4,21.7,15.5,9.9,5.1,13.3,45.4,61.7,104.2,103.8,145.5,184.5,157.0,90.9,160.7,112.3,69.3,43.8,1279.0,6.6,7.2,11.3,10.0,11.0,12.2,11.1,7.6,10.3,8.7,7.2,6.5,109.8,142.6,135.4,159.5,188.6,194.3,156.2,182.1,216.9,156.7,163.9,148.5,151.6,1996.4
105,Lyon,France,45.75781370000001,4.8320114,5088.036737786885,171.0,249,6.4,8.4,13.0,16.3,20.8,24.6,27.7,27.2,22.7,17.4,10.8,7.1,16.9,0.3,1.1,3.8,6.5,10.7,14.1,16.6,16.0,12.5,9.3,4.3,1.6,8.1,47.2,44.1,50.4,74.9,90.8,75.6,63.7,62.0,87.5,98.6,81.9,55.2,831.9,9.0,7.8,8.4,9.3,11.3,8.4,6.9,7.1,7.6,10.2,9.0,9.1,104.1,73.9,101.2,170.2,190.5,221.4,254.3,283.0,252.7,194.8,129.6,75.9,54.5,2001.9
106,Warsaw,Poland,52.2319581,21.0067249,5807.928749431166,138.0,248,0.6,1.9,6.6,13.6,19.5,21.9,24.4,23.9,18.4,12.7,5.9,1.6,12.6,-4.2,-3.6,-0.6,3.9,8.9,11.8,13.9,13.1,9.1,4.8,0.6,-3.0,4.6,27.0,26.0,31.0,34.0,56.0,69.0,73.0,64.0,46.0,32.0,37.0,34.0,529.0,12.0,11.0,12.0,13.0,14.0,15.0,14.0,13.0,15.0,15.0,15.0,14.0,163.0,42.0,67.0,108.0,155.0,218.0,230.0,235.0,219.0,143.0,102.0,41.0,29.0,1589.0
107,Indianapolis(IN),United States,39.7683331,-86.1583502,4422.036881830877,217.0,775,2.0,4.6,10.9,17.4,22.7,27.7,29.4,28.9,25.3,18.5,11.2,3.8,16.9,-6.4,-4.5,0.4,5.9,11.4,16.7,18.8,18.0,13.4,7.1,1.7,-4.2,6.6,68.0,59.0,90.0,97.0,128.0,108.0,116.0,80.0,79.0,79.0,94.0,81.0,1078.0,12.1,10.0,11.9,12.0,13.1,11.1,10.5,8.5,8.1,8.6,10.8,12.5,129.2,132.1,145.7,178.3,214.8,264.7,287.2,295.2,273.7,232.6,196.6,117.1,102.4,2440.4
108,Tijuana,Mexico,32.501018800000004,-116.9646629,3613.9484013394253,56.0,14,20.3,20.8,20.8,22.1,23.5,25.2,27.8,28.1,27.8,26.0,23.5,21.1,23.9,6.9,7.8,8.8,10.2,12.4,14.3,16.5,17.5,16.1,13.0,9.8,6.9,11.7,43.8,36.5,42.7,17.6,4.4,0.7,0.7,0.9,5.0,7.8,33.8,37.0,230.9,5.9,4.7,5.9,3.1,1.4,0.5,0.4,0.2,0.7,1.7,3.9,4.3,32.7,217.0,228.8,248.0,240.0,248.0,240.0,310.0,279.0,270.0,248.0,240.0,248.0,3014.0
109,Miami(FL),United States,25.7742658,-80.1936589,2865.967594948359,2.0,0,24.7,25.6,26.8,28.4,30.6,31.9,32.7,32.8,31.8,30.1,27.6,25.5,29.1,15.5,16.8,18.3,20.2,22.7,24.4,25.2,25.2,24.7,23.1,20.1,17.2,21.1,41.0,57.0,76.0,80.0,136.0,246.0,165.0,226.0,250.0,161.0,83.0,52.0,1572.0,6.9,6.5,7.0,6.4,10.0,16.4,16.9,18.9,17.9,12.7,8.4,7.2,135.2,219.8,216.9,277.2,293.8,301.3,288.7,308.7,288.3,262.2,260.2,220.8,216.1,3154.0
110,Nagoya,Japan,35.1851045,136.8998438,3912.4051138586333,21.0,9,9.0,10.1,13.9,19.9,24.1,27.2,30.8,32.8,28.6,22.8,17.0,11.6,20.7,0.8,1.1,4.2,9.6,14.5,19.0,23.0,24.3,20.7,14.1,8.1,3.1,11.9,48.4,65.6,121.8,124.8,156.5,201.0,203.6,126.3,234.4,128.3,79.7,45.0,1535.3,6.8,7.5,10.2,10.4,11.4,12.8,13.0,8.7,11.9,9.5,7.2,6.9,116.2,170.1,170.0,189.1,196.6,197.5,149.9,164.3,200.4,151.0,169.0,162.7,172.2,2091.6
111,Auckland,New Zealand,-36.852095,174.76318030000004,4097.76600022331,36.0,1,23.1,23.7,22.4,20.1,17.7,15.5,14.7,15.1,16.5,17.8,19.5,21.6,19.0,15.2,15.8,14.4,12.1,10.3,8.1,7.1,7.5,8.9,10.4,12.0,14.0,11.3,73.3,66.1,87.3,99.4,112.6,126.4,145.1,118.4,105.1,100.2,85.8,92.8,1210.7,8.0,7.1,8.4,10.6,12.0,14.8,16.0,14.9,12.8,12.0,10.3,9.3,135.7,228.8,194.9,189.2,157.3,139.8,110.3,128.1,142.9,148.6,178.1,188.1,197.2,2003.1
112,Oklahoma City(OK),United States,35.4729886,-97.5170536,3944.4163652402685,373.0,679,9.8,12.6,17.4,22.4,26.8,31.2,34.4,34.1,29.3,23.0,16.4,10.3,22.3,-1.8,0.4,5.0,9.8,15.3,19.9,22.3,21.8,17.3,10.9,4.4,-0.8,10.4,35.0,40.0,78.0,78.0,118.0,125.0,74.0,83.0,103.0,94.0,50.0,48.0,928.0,5.1,5.8,7.6,7.7,9.8,9.1,5.7,6.7,7.2,7.9,6.0,5.8,84.4,200.8,189.7,244.2,271.3,295.2,326.1,356.6,329.3,263.7,245.1,186.5,180.9,3089.4
113,Mosul,Iraq,36.34369405,43.09971559730229,4041.2343938820363,260.0,566,12.4,14.8,19.3,25.2,32.7,39.2,42.9,42.6,38.2,30.6,21.1,14.1,27.8,2.2,3.4,6.8,11.2,16.2,21.3,25.0,24.2,19.1,13.5,7.2,3.8,12.8,62.1,62.7,63.2,44.1,15.2,1.1,0.2,0.0,0.3,11.8,45.0,57.9,363.6,11.0,11.0,12.0,9.0,6.0,0.0,0.0,0.0,0.0,5.0,7.0,10.0,71.0,117.68652896495327,131.13794586719933,177.85941205012188,201.5484683926415,261.4044645529326,311.43059414535776,333.80897447384785,323.2255375111379,275.2219069525994,218.44968229621526,155.53843045269593,119.32459587756185,2626.6365415372647
114,Cairo,Egypt,30.048819,31.243666,3341.2762244606233,36.0,114,18.9,20.4,23.5,28.3,32.0,33.9,34.7,34.2,32.6,29.2,24.8,20.3,27.7,9.0,9.7,11.6,14.6,17.7,20.1,22.0,22.1,20.5,17.4,14.1,10.4,15.8,5.0,3.8,3.8,1.1,0.5,0.1,0.0,0.0,0.0,0.7,3.8,5.9,24.7,3.5,2.7,1.9,0.9,0.5,0.1,0.0,0.0,0.0,0.5,1.3,2.8,14.2,213.0,234.0,269.0,291.0,324.0,357.0,363.0,351.0,311.0,292.0,248.0,198.0,3451.0
115,Cordoba,Argentina,-31.4173391,-64.183319,3493.4487165917267,398.0,571,30.9,29.6,28.1,24.8,21.3,18.7,18.3,21.1,23.2,26.6,28.7,30.3,25.1,18.5,17.5,16.4,12.8,9.4,6.3,5.5,7.3,9.5,13.3,15.6,17.9,12.5,126.3,97.0,112.1,61.3,18.8,4.5,13.3,8.9,35.2,69.8,112.2,154.6,814.0,12.0,10.3,10.3,7.1,5.0,2.8,3.2,2.2,4.9,7.6,10.5,12.7,88.6,257.3,229.6,204.6,189.0,170.5,150.0,170.5,204.6,213.0,238.7,255.0,251.1,2533.9
116,Munich,Germany,48.1371079,11.575382199999998,5352.602181821709,526.0,288,3.5,5.0,9.5,14.2,19.1,21.9,24.4,23.9,19.4,14.3,7.7,4.2,13.9,-2.5,-1.9,1.6,4.9,9.4,12.5,14.5,14.2,10.5,6.6,1.7,-1.2,5.9,48.0,46.0,65.0,65.0,101.0,118.0,122.0,115.0,75.0,65.0,61.0,65.0,944.0,9.466377687746942,7.911279131313055,9.37862364196937,9.234255948900822,10.473909990964422,10.599966964882267,9.731613274731888,9.75631745260672,8.591823329259949,8.536378288209832,9.206474559498014,9.63444586631863,112.5214661364019,79.0,96.0,133.0,170.0,209.0,210.0,238.0,220.0,163.0,125.0,75.0,59.0,1777.0
117,Oran,Algeria,35.7032751,-0.6492975999999999,3970.023055715,78.0,2,16.6,17.7,19.7,21.5,23.9,27.7,30.5,31.6,29.0,25.2,20.6,17.7,23.5,5.1,6.5,8.1,10.0,13.2,16.9,19.4,20.1,17.7,14.0,9.5,6.7,12.3,43.6,44.4,35.0,29.6,27.2,3.8,1.8,2.7,13.2,24.8,55.5,45.2,326.8,8.7,8.5,7.1,7.2,6.9,2.0,1.3,1.8,3.6,6.6,8.4,8.8,70.9,167.76084591472997,172.42665995855708,219.8133256605189,239.8989114697716,270.7087653500252,285.53957010812616,319.8458407249732,300.38573527109247,246.24381932390665,209.39617137259134,166.84540630587642,155.28855722261858,2757.9761398821947
118,Kansas City(MO),United States,39.100105,-94.5781416,4347.733307269544,274.0,1012,4.2,7.0,13.4,19.3,24.4,29.4,32.3,31.4,26.7,19.9,12.3,5.4,18.8,-5.3,-3.2,2.1,8.1,13.9,19.3,22.2,21.2,15.8,9.4,2.6,-3.6,8.6,29.0,38.0,55.0,94.0,130.0,140.0,101.0,112.0,106.0,89.0,54.0,44.0,992.0,4.8,5.3,7.6,9.4,11.0,10.2,7.9,7.5,8.1,7.5,6.1,5.4,90.8,165.9533917007332,169.32773497272035,211.59071690641127,231.35119008222426,262.03419583460936,300.7525207990923,328.42823250508343,298.4463327241191,239.2787549593445,215.08323628299314,160.63135850195317,154.66266276843402,2737.540328037718
119,Kampala,Uganda,0.31771370000000004,32.5813539,35.328151565471344,1232.0,911,28.6,29.3,28.7,27.7,27.3,27.1,26.9,27.2,27.9,27.7,27.4,27.9,27.8,17.7,18.0,18.1,18.0,17.9,17.6,17.1,17.1,17.2,17.4,17.5,17.5,17.6,68.4,63.0,131.5,169.3,117.5,69.2,63.1,95.7,108.4,138.0,148.7,91.5,1264.3,4.8,5.1,9.5,12.2,10.9,6.3,4.7,6.7,8.6,9.1,8.4,7.4,93.7,155.0,170.0,155.0,120.0,124.0,180.0,186.0,155.0,150.0,155.0,150.0,124.0,1824.0
120,Aleppo,Syria,36.19924,37.1637253,4025.1718363887767,431.0,100,10.0,12.5,16.5,22.2,28.8,33.5,36.0,35.9,33.1,26.6,18.5,12.1,23.8,1.7,2.9,5.3,9.3,13.6,18.0,20.9,20.8,17.6,12.5,6.6,3.4,11.1,60.0,51.0,45.2,33.5,19.0,2.3,0.1,0.0,1.3,22.5,36.1,58.4,329.4,9.3,8.2,7.2,5.2,2.6,0.6,0.1,0.0,0.3,3.2,5.1,9.3,51.1,120.9,140.0,198.4,243.0,319.3,366.0,387.5,365.8,303.0,244.9,186.0,127.1,3001.9
121,Sao Paulo,Brazil,-23.5506507,-46.6333824,2618.7128770181257,765.0,47,28.2,28.8,28.0,26.2,23.3,22.6,22.4,24.1,24.4,25.9,26.9,27.6,25.7,19.3,19.5,18.8,17.4,14.5,13.0,12.3,13.1,14.4,16.0,17.3,18.3,16.2,288.2,246.2,214.5,82.1,78.1,50.3,47.8,36.0,84.8,126.6,136.6,224.4,1618.7,15.0,14.0,11.0,7.0,6.0,4.0,4.0,4.0,7.0,10.0,11.0,14.0,107.0,170.6,162.2,167.1,165.8,182.3,172.6,187.1,175.3,152.6,153.9,163.0,150.8,2003.3
122,Riyadh,Saudi Arabia,24.6319692,46.7150648,2738.9500083050298,590.0,365,20.2,23.4,27.7,33.4,39.4,42.5,43.5,43.6,40.4,35.3,27.8,22.2,33.3,9.0,11.2,15.2,20.4,25.9,28.0,29.3,29.2,25.9,21.2,15.5,10.6,20.1,11.9,6.4,21.0,23.8,4.9,0.0,0.0,0.4,0.0,0.8,8.7,14.6,92.5,6.1,4.3,9.4,11.3,3.3,0.0,0.1,0.2,0.0,0.5,3.3,6.3,44.8,212.4,226.6,219.8,242.3,287.7,328.2,332.1,309.2,271.6,311.4,269.2,214.3,3224.8
123,Toulouse,France,43.6044622,1.4442469,4848.594975704435,156.0,140,9.5,11.1,14.5,17.0,21.0,25.2,28.0,27.9,24.6,19.5,13.3,9.9,18.5,2.4,3.0,5.0,7.1,10.9,14.3,16.5,16.5,13.4,10.5,5.8,3.2,9.1,51.3,41.6,49.1,69.6,74.0,60.3,37.7,46.8,47.4,57.0,51.1,52.4,638.3,9.2,7.8,8.6,9.6,9.9,7.1,5.0,6.1,6.5,8.1,9.2,8.6,95.7,92.5,115.0,175.1,186.1,209.2,227.6,252.6,238.8,204.0,149.2,96.0,85.3,2031.3
124,Harbin,China,45.7988273,126.5303997,5092.597242030314,118.0,477,-12.0,-6.3,2.8,14.0,21.5,26.5,27.8,26.5,21.2,12.3,-0.1,-9.2,10.4,-22.9,-18.3,-8.5,1.4,8.8,15.2,18.6,16.9,9.3,0.9,-9.5,-19.0,-0.6,4.2,4.9,11.9,20.1,39.3,88.2,147.8,122.6,56.3,23.0,12.7,6.9,537.9,5.8,5.7,5.7,6.7,10.3,13.5,14.2,12.3,9.9,7.1,6.0,7.2,104.4,155.9,179.9,230.9,231.4,264.1,260.2,254.2,247.2,230.5,206.8,170.2,139.9,2571.2
125,Busan,South Korea,35.1799528,129.0752365,3911.832270955039,26.0,6,7.8,9.8,13.4,18.2,21.7,24.4,27.3,29.4,26.3,22.4,16.3,10.5,18.9,-0.6,1.1,4.9,9.9,14.1,17.9,21.8,23.4,19.5,14.1,7.8,2.0,11.3,34.4,50.2,80.7,132.7,157.4,206.7,316.9,255.1,158.0,58.4,45.8,22.8,1519.1,5.5,6.2,8.4,9.1,9.4,10.4,13.6,11.5,9.3,5.2,5.5,4.2,98.3,199.0,182.5,193.0,210.0,221.7,179.7,165.8,200.9,167.2,208.9,194.4,204.3,2327.3
126,Rochester(NY),United States,43.157285,-77.615214,4798.871139753315,151.0,395,-0.2,1.2,6.0,13.3,19.8,24.8,27.2,26.2,22.0,15.3,8.9,2.5,14.0,-8.0,-7.4,-3.4,2.6,7.9,13.3,15.9,15.3,11.1,5.3,0.6,-4.7,4.1,61.0,50.0,64.0,69.0,73.0,85.0,85.0,88.0,86.0,69.0,75.0,67.0,870.0,19.4,15.9,15.1,13.1,12.2,11.9,10.8,10.8,11.5,13.2,15.3,17.6,166.8,108.3,118.1,177.7,216.5,266.5,297.6,314.4,273.4,212.3,154.4,81.5,77.5,2298.2
127,Lucknow,India,26.8381,80.9346001,2984.260560779332,121.0,856,22.1,26.2,32.3,38.2,39.6,38.3,34.1,33.5,33.3,32.8,29.1,24.4,32.0,7.9,10.7,15.2,20.7,24.7,26.6,26.1,25.7,24.3,19.4,13.2,9.1,18.6,16.7,16.1,8.6,5.6,24.4,107.8,255.3,213.7,205.6,44.8,6.4,12.3,917.3,1.3,1.4,0.9,0.6,2.0,5.2,11.8,10.6,8.4,1.7,0.6,0.8,45.4,239.67658321451432,242.546923486687,270.30155552396036,273.76635157381077,276.553020928533,192.35750265726483,137.83501671712406,152.34864479324258,173.58142097598525,231.42390976958356,237.5487405800605,219.6460578500429,2647.5857280708096
128,Rangoon,Myanmar,16.7967129,96.1609916,1867.7092587852133,16.0,0,33.2,35.2,36.7,37.5,34.2,30.8,30.3,30.0,30.9,32.2,33.1,32.5,33.1,16.7,18.4,21.0,23.8,24.3,23.6,23.2,23.2,23.2,23.1,21.3,17.8,21.6,0.4,3.1,12.4,37.8,328.1,565.6,605.8,570.7,393.7,200.3,58.6,6.8,2783.3,0.2,0.2,0.4,1.6,12.6,25.3,26.2,26.1,19.5,12.2,4.8,0.2,129.3,300.0,272.0,290.0,292.0,181.0,80.0,77.0,92.0,97.0,203.0,280.0,288.0,2452.0
129,Shenyang,China,41.6744574,123.4582891,4633.988233544787,48.0,146,-4.9,-0.3,7.0,16.9,23.4,27.5,29.0,28.6,24.0,16.2,5.6,-2.2,14.2,-16.5,-11.9,-3.9,4.5,11.6,17.1,20.6,19.4,12.3,4.4,-4.5,-12.7,3.4,6.9,8.6,20.6,39.5,53.1,92.5,173.6,169.2,64.6,39.4,20.3,10.2,698.5,3.5,4.0,5.1,7.7,9.2,11.9,13.5,10.9,7.6,6.7,5.4,3.8,89.3,162.5,179.3,221.8,236.3,256.0,238.6,206.8,218.8,228.4,212.3,161.0,146.2,2468.0
130,Porto,Portugal,41.1494512,-8.6107884,4575.61020764785,86.0,1,13.8,15.0,17.4,18.1,20.1,23.5,25.3,25.7,24.1,20.7,17.1,14.4,19.6,5.2,5.9,7.8,9.1,11.6,14.5,15.9,15.9,14.7,12.2,8.9,6.9,10.7,147.1,110.5,95.6,117.6,89.6,39.9,20.4,32.9,71.9,158.3,172.0,181.0,1237.0,9.259798115529549,8.933609119182114,7.542311719830245,8.39699708318848,6.485991902491632,3.1879869943100645,1.4709807495132088,1.6891974319147574,4.09655248755344,7.723705285456127,9.231247579904291,9.82163140855415,77.37214077974934,163.30770897460343,169.19882103073945,219.76060441511635,241.4853022489943,281.079289629342,295.80236869807203,332.1212255836964,316.8373003996371,255.6145130404735,215.17933454941573,166.24346735044043,153.26503143974878,2811.188323025694
131,Chennai,India,13.0801721,80.2838331,1454.4487771577037,9.0,1,29.3,30.9,32.9,34.5,37.1,37.0,35.3,34.7,34.2,32.1,29.9,28.9,33.1,21.2,22.2,24.2,26.6,28.0,27.5,26.4,25.9,25.6,24.6,23.1,21.9,24.8,25.9,3.4,3.5,14.4,34.2,55.8,103.8,126.8,147.7,315.6,399.9,177.4,1382.9,1.4,0.8,0.3,0.8,1.8,4.0,6.5,7.7,7.3,10.9,11.5,5.8,58.8,232.5,240.1,291.4,294.0,300.7,234.0,142.6,189.1,195.0,257.3,261.0,210.8,2848.5
132,Minneapolis-St. Paul(MN),United States,44.07517895,-95.66567459425735,4900.936290191049,451.0,1380,-4.6,-1.7,5.2,14.3,20.8,26.0,28.6,26.9,22.1,14.4,5.1,-2.7,12.9,-13.6,-10.7,-4.3,2.9,9.4,14.9,17.8,16.6,11.3,4.3,-3.2,-10.9,2.9,23.0,20.0,48.0,68.0,85.0,108.0,103.0,109.0,78.0,62.0,45.0,29.0,778.0,8.9,7.4,9.3,10.7,11.5,11.3,10.2,9.7,9.8,9.2,8.7,9.8,116.5,156.7,178.3,217.5,242.1,295.2,321.9,350.5,307.2,233.2,181.0,112.8,114.3,2710.7
133,Orlando(FL),United States,28.5479786,-81.41278418563017,3174.3903862774323,30.0,60,21.8,23.3,25.6,28.1,31.2,32.6,33.2,33.1,31.9,29.2,25.8,22.7,28.2,9.6,11.2,13.2,15.6,19.1,22.2,23.1,23.4,22.6,19.1,14.8,11.3,17.1,60.0,60.0,96.0,68.0,88.0,193.0,185.0,181.0,154.0,84.0,55.0,66.0,1289.0,6.6,6.8,7.4,6.2,7.5,15.6,16.3,16.6,13.2,8.0,6.3,6.6,117.1,151.98622879930264,151.30812274981,199.89213304272562,216.07909368982718,223.12684532886152,211.1552384254744,220.6578375020994,207.62777885835908,181.9400943933247,169.02094032077724,154.80076005864942,144.14017837050358,2231.7352515397147
134,Copenhagen,Denmark,55.6867243,12.5700724,6192.0812236142665,13.0,1,3.4,3.6,6.5,11.8,16.7,19.6,22.2,21.8,17.5,12.6,7.6,4.4,12.3,-0.7,-0.8,0.7,4.2,8.6,11.9,14.3,14.1,10.8,7.1,3.3,0.5,6.2,53.0,36.9,42.3,35.8,47.2,63.9,60.9,67.5,61.0,63.3,56.4,57.4,645.7,14.9,11.4,13.5,11.5,10.8,12.0,12.4,12.0,13.6,14.5,15.4,15.4,157.4,51.5,68.1,119.7,180.9,230.2,213.3,228.1,198.9,141.9,100.9,55.3,40.6,1629.7
135,Belgrade,Serbia,44.8178131,20.4568974,4983.513440024043,131.0,293,4.6,7.0,12.4,18.0,23.5,26.2,28.6,28.7,23.9,18.4,11.2,5.8,17.4,-1.1,-0.1,3.7,8.3,13.0,15.8,17.5,17.6,13.5,9.0,4.2,0.2,8.5,46.9,40.0,49.3,56.1,58.0,101.2,63.0,58.3,55.3,50.2,55.1,57.4,690.9,13.0,12.0,11.0,13.0,13.0,13.0,10.0,9.0,10.0,10.0,12.0,14.0,139.0,72.2,101.7,153.2,188.1,242.2,260.9,290.8,274.0,204.3,163.1,97.0,64.5,2111.9
136,Vancouver,Canada,49.2608724,-123.11395290000002,5477.559092964968,42.0,3,6.9,8.2,10.3,13.2,16.7,19.6,22.2,22.2,18.9,13.5,9.2,6.3,13.9,1.4,1.6,3.4,5.6,8.8,11.7,13.7,13.8,10.8,7.0,3.5,0.8,6.8,168.4,104.6,113.9,88.5,65.0,53.8,35.6,36.7,50.9,120.8,188.9,161.9,1189.0,19.5,15.4,17.7,14.8,13.2,11.5,6.3,6.7,8.3,15.4,20.4,19.7,168.9,60.2,91.0,134.8,185.0,222.5,226.9,289.8,277.1,212.8,120.7,60.4,56.5,1937.5
137,Ouagadougou,Burkina Faso,12.3681873,-1.5270944,1375.279679549663,306.0,756,32.9,35.8,38.3,39.3,37.7,34.7,32.1,31.1,32.5,35.6,35.9,33.4,34.9,16.5,19.1,23.5,26.4,26.1,24.1,22.8,22.2,22.4,23.0,19.6,16.9,21.9,0.1,0.5,5.9,26.5,66.8,97.5,176.2,214.2,121.2,33.5,1.2,0.2,743.8,0.0,0.0,1.0,3.0,8.0,10.0,14.0,16.0,11.0,5.0,0.0,0.0,68.0,287.0,263.0,264.0,256.0,277.0,264.0,240.0,223.0,217.0,273.0,288.0,284.0,3136.0
138,Surat,India,21.1864607,72.80812809999998,2355.826943394327,17.0,3,30.8,32.3,35.4,36.7,35.8,34.0,31.2,30.8,32.3,35.1,34.1,31.9,33.4,15.2,16.7,20.7,24.0,26.8,27.0,25.9,25.5,25.4,23.3,19.6,16.5,22.2,1.5,0.3,0.4,0.2,3.9,245.2,466.3,283.8,151.8,41.8,7.1,0.6,1202.8,0.1,0.1,0.0,0.0,0.3,7.0,14.6,12.7,6.7,1.7,0.5,0.0,43.8,179.54568217881564,172.20725674654068,178.2939291913849,187.4449711957734,201.3814302334015,137.8218757193369,82.73441078944566,75.77793305898135,131.9670853431047,176.64535540794196,173.56854701219174,178.45342724703346,1875.8419041239517
139,Guayaquil,Ecuador,-2.1899066,-79.887726,243.50650374543503,13.0,4,31.2,31.2,32.2,32.0,31.2,29.8,29.1,29.7,30.5,30.2,31.1,31.8,30.8,23.0,23.4,23.7,23.5,22.6,21.5,20.8,20.7,20.5,20.9,21.3,22.4,22.0,200.7,332.0,315.7,207.7,62.6,34.0,15.6,1.2,1.5,5.6,29.1,68.0,1263.2,12.0,14.0,15.0,10.0,4.0,1.0,0.0,0.0,0.0,1.0,0.0,2.0,59.0,226.02467649927883,207.53469273590852,194.73711469934418,190.60030692824563,160.42074295032037,152.51100878724432,171.0774248991255,176.5621660286154,147.6408946946224,145.3440054737599,169.71110320470774,185.60558768648855,2127.7697245876616
140,Portland(OR),United States,45.5202471,-122.6741949,5061.620537126688,10.0,94,8.3,10.7,13.7,16.3,20.0,23.1,27.0,27.3,24.3,17.7,11.6,7.6,17.3,2.1,2.4,4.2,6.2,9.2,12.0,14.3,14.4,11.7,7.8,4.7,1.8,7.6,124.0,93.0,93.0,69.0,63.0,43.0,17.0,17.0,37.0,76.0,143.0,139.0,915.0,18.0,14.9,17.6,16.4,13.6,9.2,4.1,3.9,6.7,12.5,19.0,18.6,154.5,85.6,116.4,191.1,221.1,276.1,290.2,331.9,298.1,235.7,151.7,79.3,63.7,2340.9
141,Bogota,Colombia,4.59808,-74.0760439,511.2831683058127,2613.0,337,20.2,20.3,19.4,20.1,19.0,19.2,18.6,18.8,19.2,19.5,19.6,19.9,19.6,7.6,8.4,9.5,9.7,9.7,9.5,9.2,8.9,8.7,9.0,9.2,8.0,9.0,50.0,68.0,91.0,135.0,120.0,54.0,35.0,45.0,70.0,137.0,127.0,81.0,1012.0,9.0,12.0,14.0,18.0,19.0,17.0,15.0,14.0,16.0,21.0,16.0,11.0,181.0,156.0,128.0,107.0,88.0,83.0,94.0,114.0,117.0,109.0,96.0,103.0,138.0,1328.0
142,Maputo,Mozambique,-25.966213,32.56745,2887.311149771987,20.0,0,29.9,29.6,29.3,27.8,26.4,24.6,24.4,25.3,26.1,26.5,27.4,29.1,27.2,22.3,22.3,21.5,19.4,16.9,14.4,14.2,15.4,17.2,18.3,19.7,21.4,18.6,171.1,130.5,105.6,56.5,31.9,17.6,19.6,15.0,44.4,54.7,81.7,85.0,813.6,8.1,7.6,7.0,4.4,2.8,2.4,1.8,2.2,3.2,5.5,7.9,7.5,60.4,223.0,210.0,225.0,229.0,253.0,246.0,256.0,252.0,228.0,210.0,198.0,220.0,2750.0
143,Tunis,Tunisia,33.8439408,9.400138,3763.274514618788,45.0,60,16.1,16.8,19.0,21.7,26.1,30.6,33.8,34.1,30.4,26.5,21.2,17.3,24.5,7.6,7.7,9.2,11.4,14.8,18.6,21.3,22.2,20.1,16.8,12.2,8.9,14.2,63.1,49.2,39.2,38.5,23.6,12.9,4.0,7.1,56.3,47.7,54.8,75.2,471.6,8.6,8.1,8.0,5.5,3.1,1.7,0.6,1.3,3.5,6.1,5.9,8.1,60.5,145.7,159.6,198.4,225.0,282.1,309.0,356.5,328.6,258.0,217.0,174.0,148.8,2802.7
144,Kano,Nigeria,11.894838900000002,8.5364136,1322.6457389343439,451.0,743,29.0,32.4,36.4,39.1,37.1,35.4,32.0,30.9,32.3,34.5,33.1,29.9,33.5,13.7,16.2,20.4,24.5,25.0,23.7,22.1,21.2,21.9,21.2,17.1,14.2,20.1,0.0,0.3,1.0,14.1,57.3,132.5,281.0,323.9,155.8,14.1,0.0,0.0,980.0,0.0,0.0,0.0,1.0,5.0,8.0,13.0,15.0,24.0,6.0,0.0,0.0,72.0,244.9,232.4,238.7,234.0,263.5,261.0,229.4,220.1,240.0,266.6,264.0,260.4,2955.0
145,Freetown,Sierra Leone,8.479004,-13.26795,942.82222779892,69.0,2,29.9,30.3,30.9,31.2,30.9,30.1,28.7,28.4,29.0,29.9,30.1,29.7,29.9,23.8,24.0,24.4,24.8,24.4,23.6,23.1,23.0,23.1,23.4,24.0,24.1,23.8,8.0,6.0,28.0,68.0,214.0,522.0,1190.0,1078.0,800.0,333.0,148.0,38.0,4433.0,0.0,0.0,1.0,4.0,15.0,22.0,27.0,27.0,24.0,21.0,9.0,2.0,152.0,226.3,215.6,232.5,207.0,189.1,153.0,102.3,86.8,126.0,186.0,198.0,161.2,2083.8
146,Brasilia,Brazil,-10.3333333,-53.2,1149.014238287276,300.0,971,26.5,27.0,26.7,26.6,25.9,25.0,25.3,26.9,28.4,28.2,26.7,26.3,26.6,18.1,18.0,18.1,17.5,15.6,13.9,13.7,15.2,17.2,18.1,18.0,18.1,16.8,209.4,183.0,211.8,133.4,29.7,4.9,6.3,24.1,46.6,159.8,226.9,241.5,1477.4,17.0,14.0,14.0,8.0,3.0,1.0,1.0,2.0,5.0,11.0,17.0,19.0,112.0,150.9,158.9,166.5,204.6,239.5,254.3,268.9,264.4,210.5,183.1,139.9,126.8,2368.3
147,Xiamen,China,24.4801069,118.0853479,2722.063690996456,0.0,1,17.3,17.5,19.5,23.5,27.0,29.7,32.2,32.0,30.4,27.5,23.8,19.4,25.0,10.0,10.4,12.1,16.2,20.3,23.5,25.2,25.1,23.6,20.5,16.5,12.0,18.0,35.1,83.1,111.6,147.0,171.7,198.8,129.5,207.1,148.6,42.6,29.3,28.0,1332.4,7.1,12.0,15.4,14.6,15.2,14.8,9.9,10.9,9.0,3.2,4.0,4.9,121.0,133.3,88.3,89.6,105.6,132.6,163.8,234.6,211.6,178.9,188.4,163.0,163.5,1853.2
148,Singapore,Singapore,1.340863,103.8303918221208,149.09716292540296,37.0,6,30.4,31.7,32.0,32.3,32.2,32.0,31.3,31.4,31.4,31.7,31.1,30.2,31.5,23.9,24.3,24.6,25.0,25.4,25.4,25.0,25.0,24.8,24.7,24.3,24.0,24.7,234.6,112.8,170.3,154.8,171.2,130.7,154.4,148.9,156.5,154.6,258.5,318.6,2165.9,13.0,8.0,13.0,14.0,14.0,12.0,14.0,14.0,13.0,15.0,18.0,18.0,166.0,172.4,183.2,192.7,173.6,179.8,177.7,187.9,180.6,156.2,155.2,129.6,133.5,2022.4
149,Beijing,China,40.190632,116.412144,4468.994377038455,40.0,163,2.1,5.8,12.6,20.7,26.9,30.5,31.5,30.5,26.2,19.4,10.3,3.8,18.4,-7.1,-4.3,1.6,8.9,14.9,19.8,22.7,21.7,16.0,8.8,0.6,-4.9,8.2,2.7,5.0,10.2,23.1,39.0,76.7,168.8,120.2,57.4,24.1,13.1,2.4,542.7,1.8,2.3,3.3,4.7,6.1,9.9,12.8,10.9,7.6,4.8,2.9,2.0,69.1,186.2,188.1,227.5,242.8,267.6,225.6,194.5,208.2,207.5,205.2,174.5,172.3,2500.0
150,El Paso(TX),United States,31.7754152,-106.4646348,3533.264962264397,1125.0,583,14.3,17.3,21.3,25.9,31.0,35.3,34.8,33.6,30.9,25.7,19.0,13.9,25.2,0.3,2.8,6.1,10.4,15.6,20.0,21.6,20.9,17.4,11.1,4.5,0.3,10.9,10.0,12.0,6.6,5.8,12.0,24.0,39.0,51.0,38.0,15.0,12.0,20.0,247.0,3.8,3.4,2.4,1.9,2.7,3.9,8.3,8.7,6.3,4.7,3.1,3.9,53.1,254.5,263.0,326.0,348.0,384.7,384.1,360.2,335.4,304.1,298.6,257.6,246.3,3762.5
151,Zhengzhou,China,34.759187700000005,113.6524076,3865.0453265259484,106.0,505,5.8,9.2,14.7,22.1,27.5,31.8,31.7,30.3,26.7,21.7,14.4,7.9,20.3,-3.7,-1.0,3.7,10.1,15.6,20.4,23.1,22.0,16.7,10.6,3.6,-1.8,9.9,9.6,12.5,26.7,30.1,63.1,67.8,146.2,138.9,74.6,39.4,22.6,9.4,640.9,3.3,4.3,6.2,6.6,6.8,7.7,11.6,9.9,8.2,6.8,5.0,3.5,79.9,144.3,139.0,164.8,202.8,234.0,229.5,199.9,199.6,179.2,182.4,158.3,148.1,2181.9
152,Minsk,Belarus,53.902334,27.5618791,5993.666075100504,216.0,414,-2.1,-1.4,3.8,12.2,18.7,21.5,23.6,22.8,16.7,10.2,2.9,-1.2,10.6,-6.7,-7.0,-3.2,2.6,8.1,11.7,13.8,12.8,8.2,3.7,-1.3,-5.5,3.1,45.0,39.0,44.0,42.0,65.0,89.0,89.0,68.0,60.0,52.0,48.0,49.0,690.0,11.0,9.0,11.0,13.0,18.0,19.0,18.0,15.0,18.0,18.0,17.0,13.0,180.0,44.0,66.0,134.0,181.0,257.0,273.0,269.0,242.0,165.0,97.0,36.0,27.0,1790.0
153,Philadelphia(PA),United States,39.9527237,-75.16352619999998,4442.540181071823,12.0,25,4.6,6.6,11.5,17.7,23.2,28.2,30.6,29.6,25.6,19.2,13.3,7.1,18.2,-3.6,-2.4,1.3,6.7,12.2,17.7,20.7,19.9,15.7,9.1,4.0,-1.1,8.4,77.0,67.0,96.0,90.0,94.0,87.0,110.0,89.0,96.0,81.0,76.0,90.0,1055.0,10.6,9.4,10.5,11.3,11.1,9.8,9.9,8.4,8.7,8.6,9.3,10.6,118.2,155.7,154.7,202.8,217.0,245.1,271.2,275.6,260.1,219.3,204.5,154.7,137.7,2498.4
154,Taiyuan,China,37.870009,112.5452739,4210.95287278378,787.0,446,2.0,6.1,12.1,20.2,25.6,28.9,30.0,28.2,23.9,17.9,9.7,3.2,17.3,-10.8,-7.0,-1.4,5.5,11.2,15.7,18.7,17.2,11.5,4.5,-2.6,-8.6,4.5,3.0,4.8,12.5,19.4,38.2,54.0,93.5,99.6,58.3,25.8,11.6,2.6,423.3,1.9,2.9,4.4,4.3,5.7,9.3,12.4,11.2,8.1,5.4,3.3,1.4,70.3,173.4,174.0,202.3,229.8,265.1,250.9,228.6,223.8,209.6,206.9,174.6,162.6,2501.6
155,Tampa-St. Petersburg(FL),United States,27.773056,-82.639999,3088.2229246152215,10.0,1,20.7,22.0,24.1,26.8,30.1,31.8,32.4,32.3,31.4,28.6,24.9,21.8,27.3,12.1,13.4,15.7,18.4,21.9,24.2,24.9,25.0,24.3,21.3,17.1,13.7,19.3,65.0,69.0,95.0,59.0,56.0,161.0,186.0,213.0,197.0,70.0,48.0,70.0,1289.0,6.3,6.1,6.6,4.6,4.6,11.0,14.2,14.8,12.3,6.0,4.9,5.7,97.2,167.47940794265372,170.2810666587754,225.7972878738998,247.88907644625561,265.28979775022066,257.2234000397186,269.2502713607337,249.99368945899425,216.615393325166,192.22089119752226,167.07781950594676,150.69593434853803,2579.8140359084246
156,Calgary,Canada,51.0534234,-114.0625892,5676.881669916598,1038.0,657,-0.9,0.7,4.4,11.2,16.3,19.8,23.2,22.8,17.8,11.7,3.4,-0.8,10.8,-13.2,-11.4,-7.5,-2.0,3.1,7.5,9.8,8.8,4.1,-1.4,-8.2,-12.8,-1.9,9.4,9.4,17.8,25.2,56.8,94.0,65.5,57.0,45.1,15.3,13.1,10.2,418.8,7.3,6.8,9.2,9.0,11.2,13.8,13.0,10.6,9.1,7.2,7.6,6.9,111.8,119.5,144.6,177.2,220.2,249.4,269.9,314.1,284.0,207.0,175.4,121.1,114.0,2396.3
157,Taichung,Taiwan,24.220025,120.81363084910204,2693.1439032043786,463.0,30,22.0,22.4,24.6,27.6,30.2,31.9,33.0,32.6,31.8,30.1,27.0,23.6,28.1,12.9,13.9,16.0,19.6,22.6,24.4,25.2,25.1,24.1,21.8,18.2,14.2,19.8,30.3,89.8,103.0,145.4,231.5,331.2,307.9,302.0,164.5,23.2,18.3,25.9,1773.0,6.6,9.2,11.2,11.8,12.2,14.6,12.8,15.4,9.2,2.6,3.7,4.3,113.6,176.6,140.6,149.9,137.8,158.7,160.1,199.6,178.7,175.8,203.7,179.4,182.3,2043.2
158,Charlotte(NC),United States,35.2272,-80.843083,3917.0859198932003,231.0,249,10.4,12.8,17.3,22.2,26.1,30.0,31.7,30.8,27.4,22.1,16.9,11.6,21.6,-1.3,0.4,4.1,8.3,13.2,18.1,20.1,19.6,15.8,9.3,4.0,-0.1,9.3,87.0,84.0,102.0,77.0,81.0,95.0,93.0,107.0,82.0,86.0,80.0,83.0,1057.0,9.7,9.4,9.6,8.8,9.6,10.2,10.8,9.8,7.1,6.9,8.4,9.6,109.9,173.3,180.3,234.8,269.6,292.1,289.2,290.0,272.9,241.4,230.5,178.4,168.5,2821.0
159,Nice,France,43.7009358,7.2683912,4859.32235057957,13.0,1,13.1,13.4,15.2,17.0,20.7,24.3,27.3,27.7,24.6,21.0,16.6,13.8,19.6,5.3,5.9,7.9,10.2,14.1,17.5,20.3,20.5,17.3,13.7,9.2,6.3,12.4,69.0,44.7,38.7,69.3,44.6,34.3,12.1,17.8,73.1,132.8,103.9,92.7,733.0,5.8,4.7,4.6,7.1,5.2,3.8,1.8,2.4,4.9,7.2,7.2,6.4,61.2,157.7,171.2,217.5,224.0,267.1,306.1,347.5,315.8,242.0,187.0,149.3,139.3,2724.2
160,Sanaa,Yemen,15.353856900000002,44.2058841,1707.2709917065522,2252.0,144,22.3,24.7,25.6,24.8,25.7,28.2,26.6,25.9,25.1,22.2,20.3,20.5,24.3,3.0,3.6,7.0,8.5,10.4,10.5,13.4,13.3,10.6,7.9,5.5,4.4,8.2,5.0,5.0,17.0,48.0,29.0,6.0,50.0,77.0,13.0,2.0,8.0,5.0,265.0,2.0,3.0,4.0,5.0,5.0,4.0,4.0,5.0,3.0,3.0,2.0,1.0,41.0,150.06798298505075,135.79598584484813,149.91827184376402,146.5486187119398,165.46510409005123,161.09007507144628,145.85055149095768,143.76184066280734,140.66769860298695,171.19007299958355,160.90827904492383,152.9718924526043,1824.236373800964
161,Honolulu(HI),United States,21.304547,-157.8556764,2368.9575408605538,13.0,1,26.7,26.8,27.3,28.2,29.2,30.6,31.1,31.5,31.4,30.4,28.8,27.3,29.1,19.1,18.9,19.8,20.8,21.6,23.0,23.6,23.9,23.6,23.0,21.9,20.2,21.6,59.0,51.0,51.0,16.0,16.0,6.6,13.0,14.0,18.0,47.0,61.0,82.0,434.0,8.5,7.4,8.8,7.5,5.8,5.7,7.1,5.6,6.9,7.6,8.8,9.7,89.4,213.5,212.7,259.2,251.8,280.6,286.1,306.2,303.1,278.8,244.0,200.4,199.5,3035.9
162,Cleveland(OH),United States,41.5051613,-81.6934446,4615.163366124078,196.0,494,1.3,3.1,8.1,15.1,20.8,25.9,28.1,27.1,23.3,16.8,10.4,3.5,15.3,-5.7,-4.7,-1.0,4.7,10.1,15.4,17.9,17.3,13.3,7.4,2.7,-3.1,6.3,69.0,59.0,74.0,89.0,93.0,87.0,88.0,89.0,97.0,78.0,92.0,79.0,994.0,17.1,13.9,14.2,14.4,13.2,11.1,10.3,9.8,10.0,11.4,13.5,16.0,154.9,101.0,122.3,167.0,216.0,263.6,294.6,307.2,262.2,219.0,169.5,89.8,67.8,2280.0
163,Damascus,Syria,33.5130695,36.3095814,3726.4833046864983,689.0,81,12.6,14.5,19.0,24.7,30.1,34.6,37.0,36.8,33.9,28.1,20.1,14.3,25.5,0.7,1.9,4.3,7.9,11.4,15.0,17.9,17.7,14.4,10.3,4.8,1.7,9.0,25.0,26.0,20.0,7.0,4.0,1.0,0.0,0.0,0.0,6.0,21.0,21.0,131.0,8.0,8.0,6.0,3.0,2.0,0.1,0.1,0.1,0.2,3.0,5.0,7.0,42.5,164.3,182.0,226.3,249.0,322.4,357.0,365.8,353.4,306.0,266.6,207.0,164.3,3164.1
164,Manchester,United Kingdom,53.4794892,-2.2451148,5946.647878582472,55.0,30,7.3,7.6,10.0,12.6,16.1,18.6,20.6,20.3,17.6,13.9,10.0,7.4,13.5,1.7,1.6,3.3,4.9,7.7,10.5,12.6,12.4,10.3,7.4,4.2,1.8,6.6,72.3,51.4,61.2,54.0,56.8,66.1,63.9,77.0,71.5,92.5,81.5,80.7,828.8,13.1,9.7,12.3,11.2,10.4,11.1,10.9,12.0,11.1,13.6,14.1,13.5,142.9,52.5,73.9,99.0,146.9,188.3,172.5,179.7,166.3,131.2,99.3,59.5,47.1,1416.2
165,Patna,India,25.6093239,85.1235252,2847.6268924772444,60.0,477,22.4,26.0,32.2,37.0,37.4,36.4,33.0,32.9,32.5,31.9,29.0,24.5,31.3,9.3,12.1,16.7,22.1,25.1,26.7,26.3,26.3,25.5,21.5,15.1,10.5,19.8,11.1,14.0,9.5,12.7,43.7,162.5,354.4,277.8,197.7,49.1,7.2,6.1,1145.8,1.2,1.3,0.7,1.0,2.9,6.9,14.3,12.5,9.5,2.9,0.5,0.6,54.2,207.7,228.8,260.4,264.0,272.8,192.0,130.2,151.9,162.0,238.7,240.0,201.5,2550.0
166,Shijiazhuang,China,38.0429742,114.5088385,4230.185725509841,79.0,274,3.6,6.7,13.3,21.5,27.2,32.0,31.8,30.2,26.8,20.6,11.9,5.4,19.3,-6.6,-3.7,2.2,9.4,14.7,19.8,22.4,21.4,15.9,9.1,1.5,-4.2,8.5,3.9,7.4,11.3,17.8,36.9,56.7,141.1,148.3,48.1,27.3,13.2,5.1,517.1,2.2,2.8,3.6,4.1,6.2,8.4,13.1,12.3,7.3,5.5,3.8,2.0,71.3,174.0,176.8,205.9,236.0,265.8,247.6,201.0,198.3,206.7,193.5,164.1,157.3,2427.0
167,Oslo,Norway,59.97239745,10.775729194051898,6668.6263351510715,156.0,8,-0.4,0.5,4.4,10.1,16.5,20.0,22.3,20.9,15.7,9.4,3.9,0.0,10.3,-5.3,-5.3,-2.4,1.7,6.7,10.5,13.0,12.2,8.0,3.8,-0.6,-4.7,3.2,54.9,41.0,50.4,46.9,54.1,70.5,84.7,97.8,80.6,90.4,79.1,52.4,802.7,9.8,7.3,8.5,8.1,8.5,10.1,10.9,10.9,9.4,10.9,10.7,9.2,114.3,45.7,78.7,130.5,163.8,243.5,229.7,242.1,210.9,147.3,89.6,65.9,39.4,1687.1
168,Sacramento(CA),United States,38.5815719,-121.4943996,4290.075057252268,8.0,88,12.1,15.7,18.4,21.7,26.6,30.6,33.4,32.9,30.7,25.3,17.7,12.2,23.1,3.8,5.2,6.7,7.9,10.6,13.2,14.7,14.4,13.2,10.1,6.0,3.6,9.1,92.0,88.0,70.0,29.0,17.0,5.3,7.502044885788549,1.3,7.4,24.0,53.0,83.0,470.0,10.3,9.4,9.1,4.9,3.2,1.2,0.0,0.3,1.3,3.6,6.9,9.9,60.1,145.5,201.3,278.0,329.6,406.3,419.5,440.2,406.9,347.8,296.7,194.9,141.1,3607.8
169,Kinshasa,Democratic Republic of the Congo,-4.3217055,15.3125974,480.551726051886,276.0,345,30.6,31.3,32.0,32.0,31.1,28.8,27.3,28.9,30.6,31.1,30.6,30.1,30.4,21.2,21.6,21.6,21.8,21.6,19.3,17.7,18.5,20.2,21.3,21.5,21.2,20.6,163.0,165.0,221.0,238.0,142.0,9.0,5.0,2.0,49.0,98.0,247.0,143.0,1482.0,12.0,12.0,14.0,17.0,12.0,1.0,0.0,1.0,6.0,10.0,16.0,14.0,115.0,136.0,141.0,164.0,153.0,164.0,144.0,133.0,155.0,138.0,149.0,135.0,127.0,1739.0
170,Pretoria,South Africa,-25.7459374,28.1879444,2862.817620588401,1336.0,434,28.5,28.0,26.9,24.1,21.8,18.9,19.5,22.1,25.5,26.6,27.0,28.0,24.7,17.8,17.3,16.1,12.6,8.2,4.8,4.8,7.6,11.9,14.4,15.8,16.8,12.3,135.0,76.0,79.0,54.0,13.0,7.0,3.0,5.0,20.0,73.0,100.0,108.0,673.0,10.9,7.8,7.6,5.2,1.8,0.6,0.7,1.4,2.0,6.0,9.5,10.8,64.3,260.8,235.3,253.9,245.8,282.6,270.8,289.1,295.5,284.3,275.2,253.6,271.9,3218.8
171,Lusaka,Zambia,-15.4164488,28.2821535,1714.2308934355951,1281.0,819,27.4,27.4,27.5,27.1,25.8,23.8,24.0,26.5,30.3,31.7,30.4,27.7,27.5,17.6,17.4,16.4,14.0,10.7,7.8,7.2,9.2,12.9,16.2,17.4,17.8,13.7,245.4,185.9,95.0,34.7,3.1,0.0,0.1,0.4,1.7,18.4,89.3,208.1,882.1,18.0,15.0,10.0,3.0,0.0,0.0,0.0,0.0,0.0,2.0,8.0,16.0,72.0,176.7,168.0,220.1,246.0,275.9,270.0,294.5,303.8,291.0,272.8,234.0,182.9,2935.7
172,Caracas,Venezuela,10.506098,-66.9146017,1168.224796430545,928.0,12,18.921123371581253,19.03173757603799,19.29208908508086,19.486904172919942,19.669857593828127,20.49552104693563,20.609394151094854,20.688447597231676,20.273841345981687,19.68060322076186,19.210548697189665,18.895360271019992,19.749253005956746,12.218684085871404,12.215675930943409,12.681248304824553,13.199969065957674,13.384108447996187,13.772912733367175,14.112820257291364,13.818928770766,13.592894890598796,13.365006184359004,12.937548195730447,12.178175016943483,13.061213605636203,20.222781047612713,29.383455778611783,41.24577778412882,77.77244751070353,96.46573639391778,48.19835235291964,31.10242327164452,58.549962086908806,81.93957597509998,95.0361262844349,61.31996308936998,28.644481163264754,669.702308366726,2.7103048834726877,3.6808582668048215,4.602372390768809,7.010789773799135,8.185872832446945,6.575613454857931,5.267251927739658,6.625848485787018,7.824709732388453,8.93939811363294,5.935923988972914,3.307249623047663,70.4920639703288,168.270197972689,152.62972892224076,158.74360379497747,148.8548573669499,140.6432441249883,141.7571878359492,167.65102728725756,163.31930528366865,148.77842987399194,148.3293533861418,140.08347792642337,150.00241780267214,1828.5405491985753
173,Maracaibo,Venezuela,10.6499149,-71.6396282,1184.2165060762932,35.0,2,32.5,32.8,33.1,33.1,33.1,33.6,34.1,34.2,33.6,32.5,32.4,32.5,33.1,22.8,23.2,24.1,24.8,25.0,24.9,24.9,24.9,24.6,24.1,24.1,23.3,24.2,5.1,2.7,5.9,52.1,66.8,55.4,26.5,60.0,104.0,114.4,70.6,16.9,580.4,0.6,0.3,0.6,3.6,6.1,6.7,3.6,5.8,8.1,9.2,5.3,1.7,51.6,300.0,279.0,286.0,257.0,243.0,253.0,301.0,279.0,272.5,282.9,258.0,272.7,3284.1
174,Medina,Saudi Arabia,24.471153,39.6111216,2721.0680627427737,605.0,140,24.2,26.6,30.6,34.3,39.6,42.9,42.9,43.5,42.3,36.3,30.6,26.0,35.2,11.6,13.4,16.8,21.2,25.5,28.4,29.1,29.9,27.9,21.9,17.7,13.5,21.5,6.3,3.1,9.8,9.6,5.1,0.1,1.1,4.0,0.4,2.5,10.4,7.8,60.2,2.6,1.4,3.2,4.1,2.9,0.1,0.4,1.5,0.6,2.0,3.3,2.5,24.6,145.33954861707417,159.74479765350316,170.10884994148398,194.37683140538292,235.4972736235782,265.4028028302191,271.13652626970065,256.56056522437643,221.25214056557112,207.27952196688517,172.90003133658297,144.18989085133177,2441.3815760288603
175,Tbilisi,Georgia,41.73188365,44.836876299366295,4640.37374120101,576.0,253,6.6,7.7,12.6,18.9,23.1,28.1,31.2,30.9,26.4,19.8,12.8,8.4,18.9,-0.8,0.0,3.2,8.4,12.4,16.5,19.8,19.5,15.4,10.4,4.9,1.3,9.3,18.9,25.8,30.3,50.5,77.6,76.0,44.9,47.5,35.6,37.5,29.9,21.0,495.5,4.0,4.6,5.9,7.6,9.7,8.7,5.7,5.7,5.0,5.6,4.4,4.0,70.9,99.0,102.0,142.0,171.0,213.0,249.0,256.0,248.0,206.0,164.0,103.0,93.0,2046.0
176,Dakar,Senegal,14.693425,-17.447938,1633.8343150323253,12.0,2,25.3,25.2,25.4,25.0,26.0,28.6,30.0,30.3,30.7,31.0,29.8,27.4,27.9,18.3,18.0,18.5,19.2,20.7,23.5,25.1,25.3,25.2,25.3,23.3,21.0,22.0,1.0,2.0,0.3,0.0,0.1,14.0,51.0,154.0,133.0,26.0,9.2,1.0,391.6,1.0,1.0,1.0,0.2,0.4,3.0,8.0,15.0,12.0,4.0,1.0,1.0,47.6,244.9,245.8,276.0,288.0,291.4,252.0,232.5,223.2,219.0,257.3,249.0,238.7,3017.8
177,Virginia Beach(VA),United States,36.8529841,-75.9774183,4097.86486363259,2.0,0,8.9,10.5,14.6,19.8,24.1,28.6,30.8,29.5,26.3,21.2,16.2,11.2,20.2,0.4,1.3,4.7,9.4,14.4,19.5,22.2,21.5,18.5,12.2,7.0,2.3,11.2,86.0,79.0,93.0,87.0,87.0,108.0,131.0,140.0,121.0,87.0,80.0,83.0,1182.0,10.4,9.5,10.6,10.1,10.6,9.9,11.1,10.1,8.8,7.6,8.5,9.8,117.0,171.5,175.2,229.3,252.8,271.7,280.1,278.3,260.4,231.4,208.3,175.7,160.4,2695.1
178,Brazzaville,Congo,-4.2694407,15.2712256,474.74014544979343,314.0,346,30.5,31.3,31.7,31.8,30.9,28.4,27.0,28.5,30.4,30.8,30.4,30.2,30.2,21.4,21.5,21.7,21.9,21.6,19.3,17.8,18.8,20.6,21.4,21.4,21.5,20.7,160.0,137.0,167.0,191.0,118.0,8.0,3.0,4.0,34.0,139.0,261.0,172.0,1394.0,10.0,8.0,11.0,12.0,8.0,1.0,0.0,0.0,4.0,9.0,14.0,12.0,89.0,171.0,167.0,192.0,181.0,177.0,141.0,127.0,133.0,145.0,152.0,157.0,154.0,1897.0
179,Phoenix-Mesa(AZ),United States,33.30591455,-111.65264411501957,3703.448725217191,418.0,269,19.6,21.5,24.9,29.6,34.9,39.9,41.2,40.2,37.7,31.4,24.2,18.9,30.3,7.6,9.3,11.9,15.7,20.8,25.4,28.6,28.2,24.9,18.2,11.5,7.1,17.4,23.0,23.0,25.0,7.1,2.8,0.51,27.0,25.0,16.0,15.0,17.0,22.0,204.0,4.1,4.4,3.9,1.7,1.0,0.5,4.2,5.0,2.8,2.5,2.6,3.9,36.6,256.0,257.2,318.4,353.6,401.0,407.8,378.5,360.8,328.6,308.9,256.0,244.8,3871.6
180,Mecca,Saudi Arabia,21.420847,39.826869,2381.889510829316,311.0,65,30.5,31.7,34.9,38.7,42.0,43.8,43.0,42.8,42.8,40.1,35.2,32.0,38.1,18.8,19.1,21.1,24.5,27.6,28.6,29.1,29.5,28.9,25.9,23.0,20.3,24.7,20.8,3.0,5.5,10.3,1.2,0.0,1.4,5.0,5.4,14.5,22.6,22.1,111.8,4.0,0.9,1.8,1.8,0.7,0.0,0.3,1.5,2.0,1.9,3.9,3.6,22.4,260.4,245.8,282.1,282.0,303.8,321.0,313.1,297.6,282.0,300.7,264.0,248.0,3400.5
181,Jeddah,Saudi Arabia,21.581008800000006,39.1653612,2399.6986904315772,17.0,5,29.0,29.5,31.8,34.9,37.2,38.3,39.4,38.8,37.6,36.7,33.5,30.7,34.8,20.3,20.1,21.4,22.1,24.0,24.8,26.6,27.6,26.4,24.1,22.3,21.0,23.4,9.9,3.7,2.9,2.8,0.2,0.0,0.3,0.5,0.1,1.1,26.4,13.1,61.0,2.239145579042727,1.0200362605295235,2.0225310056601775,2.3664635440206703,1.7918116614451567,0.6638830885457458,1.8204653518580667,2.630593400818226,2.1094174623412787,1.7648174941834192,2.3212837252000815,2.0082637652813133,22.758712338926387,236.68209080748233,228.95294104547432,250.01727264998246,257.27139555414806,275.09369646993923,279.07577783531235,274.00232912393074,265.6345679610008,250.3568399652616,266.8166716931577,243.3167019385445,233.8955670111082,3060.478526219176
182,Hangzhou,China,30.2489634,120.2052342,3363.5312663369423,14.0,1,8.3,10.3,14.8,21.1,26.3,29.1,33.6,32.8,28.2,23.2,17.3,11.3,21.4,1.8,3.5,7.0,12.4,17.5,21.4,25.2,24.9,20.9,15.4,9.3,3.7,13.6,79.8,86.1,143.7,122.5,128.2,211.8,180.3,156.1,130.1,78.6,72.3,48.6,1438.1,12.4,12.1,15.3,14.5,13.8,14.6,12.4,13.8,11.7,9.0,9.3,8.5,147.4,102.0,97.2,116.4,140.6,164.7,136.6,212.7,193.0,143.9,144.6,129.0,128.7,1709.4
183,Washington(DC),United States,38.8949924,-77.0365581,4324.925826758669,6.0,32,6.3,8.4,13.3,19.2,24.1,29.0,31.3,30.3,26.4,20.2,14.4,8.2,19.3,-1.9,-0.6,3.1,8.3,13.6,19.1,21.7,20.9,16.9,10.3,5.1,0.3,9.8,71.0,67.0,88.0,78.0,101.0,96.0,95.0,74.0,94.0,86.0,81.0,77.0,1009.0,9.6,9.0,10.5,10.4,11.1,10.7,10.3,8.2,8.3,7.7,8.6,9.7,114.1,144.6,151.8,204.0,228.2,260.5,283.2,280.5,263.1,225.0,203.6,150.2,133.0,2527.7
184,Monrovia,Liberia,6.328034,-10.797788,703.6452764342736,5.0,2,31.8,32.0,31.8,31.5,30.5,28.3,27.2,26.8,27.7,29.4,30.3,30.0,29.8,22.0,23.4,23.7,23.8,23.9,23.4,23.0,22.9,23.3,23.2,23.5,22.5,23.2,51.0,71.0,120.0,154.0,442.0,958.0,797.0,354.0,720.0,598.0,237.0,122.0,4624.0,4.0,3.0,8.0,12.0,22.0,24.0,21.0,17.0,24.0,22.0,16.0,9.0,182.0,158.0,167.0,198.0,195.0,155.0,105.0,84.0,81.0,96.0,121.0,147.0,155.0,1662.0
185,Memphis(TN),United States,35.1490215,-90.0516285,3908.392867320518,81.0,521,9.9,12.6,17.7,22.8,27.3,31.6,33.1,32.9,29.5,23.6,17.0,11.2,22.5,0.3,2.4,6.7,11.6,16.8,21.3,23.2,22.6,18.4,12.1,6.5,1.7,12.0,101.0,112.0,131.0,140.0,133.0,92.0,117.0,73.0,78.0,101.0,139.0,146.0,1363.0,9.5,9.2,10.5,9.6,10.3,9.0,8.8,6.8,7.3,7.5,9.5,9.7,107.7,166.6,173.8,215.3,254.6,301.5,320.6,326.9,307.0,251.2,245.9,173.0,151.9,2888.3
186,Fuzhou,China,27.951118800000003,116.3530413,3108.0226045993472,48.0,341,15.8,16.7,19.2,23.9,27.7,30.9,34.5,33.7,31.0,27.0,22.7,18.1,25.1,8.7,9.3,11.2,15.6,19.8,23.4,25.9,25.6,23.7,19.7,15.5,10.9,17.4,49.9,84.9,141.5,154.4,187.8,202.0,123.0,169.4,156.4,47.6,40.9,34.0,1391.8,9.7,14.4,17.5,17.8,18.2,15.9,10.4,12.1,11.6,7.1,7.2,7.1,149.0,101.6,79.2,89.1,111.0,114.4,141.9,225.6,199.2,153.7,144.2,120.3,126.9,1607.1
187,Seattle(WA),United States,47.6038321,-122.3300624,5293.30461835939,46.0,1,8.4,9.9,12.1,14.7,18.2,21.1,24.3,24.6,21.4,15.4,10.5,7.6,15.7,2.7,2.7,4.1,5.7,8.5,11.1,13.1,13.3,11.2,7.7,4.4,2.0,7.2,141.0,89.0,94.0,69.0,49.0,40.0,18.0,22.0,38.0,88.0,167.0,136.0,952.0,18.2,14.7,16.9,14.3,12.0,9.1,5.0,4.8,7.9,13.1,18.4,17.6,152.0,69.8,108.8,178.4,207.3,253.7,268.4,312.0,281.4,221.7,142.6,72.7,52.9,2169.7
188,Hiroshima,Japan,34.391605799999994,132.4518156,3824.1720841195806,5.0,1,9.7,10.6,14.0,19.7,24.1,27.2,30.8,32.5,29.0,23.4,17.4,12.3,20.9,1.7,2.1,4.8,9.9,14.7,19.4,23.8,24.8,20.8,14.2,8.5,3.7,12.4,44.6,66.6,123.9,141.7,177.6,247.0,258.6,110.8,169.5,87.9,68.2,41.2,1537.6,6.524707445273215,6.9295152946973335,9.56054260721224,9.238476235794305,9.755487273279966,10.88262258909094,12.942624563393688,10.888968885637507,10.023383657275938,6.369452676968574,6.493885905019452,5.853601834037047,105.50339503027973,137.2,139.7,169.0,190.1,206.2,161.4,179.5,211.2,165.3,181.8,151.6,149.4,2042.3
189,Columbus(OH),United States,39.9622601,-83.00070649999998,4443.6005803702765,229.0,517,2.5,4.8,10.6,17.5,22.7,27.6,29.4,28.7,25.0,18.4,11.4,4.5,17.0,-5.2,-3.9,0.4,5.9,11.2,16.4,18.6,17.8,13.6,7.2,2.3,-2.9,6.8,69.0,57.0,77.0,86.0,106.0,102.0,122.0,84.0,72.0,66.0,81.0,75.0,998.0,14.0,11.4,12.8,13.7,13.9,11.2,10.6,9.2,8.4,9.4,11.4,13.2,139.2,110.6,126.3,162.0,201.8,243.4,258.1,260.9,235.9,212.0,183.1,104.2,84.3,2182.6
190,Sharjah,United Arab Emirates,25.2311534,54.21900831355923,2805.576251470609,39.0,0,24.2,25.2,28.8,34.0,38.5,40.8,42.2,41.7,39.8,36.0,30.9,26.2,34.0,12.1,12.7,15.3,18.3,21.9,24.6,27.5,27.7,24.3,20.6,16.4,13.5,19.6,9.5,34.8,33.0,7.5,1.4,0.5,0.1,0.0,0.0,0.0,5.1,15.5,107.4,1.5,3.3,4.0,1.2,0.1,0.1,0.1,0.1,0.0,0.0,0.4,2.0,12.8,244.9,226.8,257.3,294.0,350.3,348.0,331.7,325.5,306.0,300.7,276.0,244.9,3506.1
191,Salvador,Brazil,-12.9822499,-38.48127720000001,1443.56032531183,27.0,2,29.9,30.0,30.0,28.6,27.7,26.5,26.2,26.4,27.2,28.1,28.9,29.0,28.2,23.6,23.7,23.9,23.7,22.9,22.0,21.4,21.2,21.7,22.5,22.9,23.2,22.7,82.5,107.2,156.6,305.2,359.9,243.7,175.0,127.4,102.0,114.9,137.1,116.1,2089.6,10.0,13.0,16.0,17.0,20.0,19.0,20.0,15.0,12.0,10.0,11.0,10.0,173.0,245.6,226.4,231.1,189.7,174.3,167.2,181.2,202.6,211.4,228.0,213.6,224.7,2495.8
192,Pittsburgh(PA),United States,40.4416941,-79.99008609999998,4496.911208831184,256.0,309,2.1,4.1,9.6,16.5,21.6,26.2,28.1,27.4,23.5,17.0,10.7,4.1,15.9,-6.1,-5.0,-1.1,4.6,9.6,14.7,17.1,16.4,12.2,6.1,1.5,-3.7,5.6,69.0,61.0,75.0,79.0,100.0,109.0,97.0,88.0,79.0,58.0,82.0,72.0,970.0,16.2,13.6,14.0,13.8,13.3,12.1,10.2,9.8,9.8,10.5,12.8,15.1,151.2,93.9,108.5,155.4,182.8,217.4,242.2,254.9,228.4,196.7,167.3,99.4,74.4,2021.3
193,Qingdao,China,36.0638034,120.3781372,4010.111973586787,12.0,1,3.1,5.3,9.4,15.3,20.7,24.0,27.3,28.4,25.5,20.1,12.6,5.8,16.5,-2.9,-1.2,2.8,8.3,13.7,18.2,22.4,23.1,19.3,13.5,6.2,-0.2,10.3,11.2,13.5,22.4,28.5,61.9,74.3,148.6,150.2,72.4,39.7,29.3,12.1,664.1,3.1,3.7,4.7,6.7,7.5,9.4,12.4,10.2,6.5,6.1,4.7,3.4,78.4,186.0,180.8,220.1,222.0,244.9,219.0,182.9,223.2,219.0,220.1,189.0,182.9,2489.9
194,Haifa,Israel,32.8191218,34.99838560000001,3649.3198410898385,13.0,2,17.8,18.6,20.9,23.8,26.5,29.5,31.6,31.6,30.2,27.9,24.4,19.8,25.2,10.0,10.2,12.1,14.8,18.2,21.9,24.4,25.1,23.2,19.5,15.1,11.8,15.9,124.9,95.2,52.8,23.6,2.7,0.1,0.0,0.0,1.2,28.0,77.8,135.5,541.8,13.9,11.7,8.6,3.6,1.4,0.1,0.1,0.0,0.8,3.9,8.0,11.8,63.9,167.64857264221848,185.45993436895947,217.6266706055502,257.4175674375768,322.9531634829343,361.9183272318629,373.1502449270686,353.6286272998412,302.1783407040468,266.07292835179317,216.64998444384358,171.58309259767714,3194.3309794538286
195,Bishkek,Kyrgyzstan,42.8765615,74.6070079,4767.656110763412,754.0,2053,3.2,4.9,11.2,18.5,23.6,29.0,31.7,30.9,25.5,17.8,11.0,5.0,17.7,-7.1,-5.2,0.4,6.4,11.1,15.6,17.9,16.4,11.3,5.0,-0.1,-5.1,5.6,26.0,35.0,55.0,67.0,61.0,34.0,21.0,13.0,19.0,45.0,42.0,35.0,453.0,3.0,5.0,9.0,12.0,13.0,10.0,10.0,6.0,6.0,8.0,7.0,4.0,93.0,137.0,128.0,153.0,194.0,261.0,306.0,332.0,317.0,264.0,196.0,144.0,114.0,2546.0
196,Cotonou,Benin,6.3676953,2.4252507000000003,708.0554117784014,5.0,3,30.8,31.6,31.9,31.6,31.0,29.2,28.0,27.8,28.4,29.6,30.9,30.8,30.1,23.8,25.4,25.9,25.6,24.6,23.7,23.7,23.4,23.6,23.8,24.3,23.8,24.3,9.2,36.8,73.8,137.0,196.9,356.0,147.0,64.9,99.0,126.7,41.4,19.6,1308.3,1.0,2.0,4.0,7.0,11.0,15.0,8.0,5.0,8.0,8.0,4.0,2.0,75.0,213.9,210.0,223.2,219.0,213.9,141.0,136.4,148.8,165.0,207.7,243.0,223.2,2345.1
197,Salt Lake City(UT),United States,40.7596198,-111.8867975,4532.262933721104,1298.0,940,3.0,6.2,12.1,16.4,22.2,28.3,33.7,32.5,26.2,18.2,9.7,3.3,17.7,-5.8,-3.8,0.9,4.2,8.8,13.6,18.2,17.4,11.7,5.2,-0.8,-5.2,5.4,32.0,32.0,45.0,51.0,50.0,25.0,15.0,18.0,31.0,39.0,37.0,36.0,409.0,10.1,9.4,9.9,9.9,9.0,5.6,4.4,5.4,5.8,7.1,9.1,9.9,95.6,127.4,163.1,241.9,269.1,321.7,360.5,380.5,352.5,301.1,248.1,150.4,113.1,3029.4
198,Luanda,Angola,-8.827269900000003,13.243951199999998,981.5476290022217,75.0,2,29.5,30.5,30.7,30.2,28.8,25.7,23.9,24.0,25.4,26.8,28.4,28.6,27.7,23.9,24.7,24.6,24.3,23.3,20.3,18.7,18.8,20.2,22.0,23.3,23.5,22.3,30.0,36.0,114.0,136.0,16.0,0.0,0.0,1.0,2.0,7.0,32.0,31.0,405.0,4.0,5.0,9.0,11.0,2.0,0.0,0.0,1.0,3.0,5.0,8.0,5.0,53.0,217.0,203.4,207.7,192.0,229.4,207.0,167.4,148.8,150.0,167.4,186.0,201.5,2277.6
199,Nairobi,Kenya,-1.2832533000000002,36.8172449,142.69125655988793,1680.0,407,25.5,26.7,26.8,25.0,23.5,22.5,22.0,22.7,25.0,25.7,24.0,24.5,24.5,10.5,10.9,12.1,13.4,12.1,10.0,9.2,9.1,9.7,11.3,12.7,11.7,11.1,58.3,49.8,92.2,242.3,189.5,38.6,17.6,24.0,31.2,60.8,149.6,107.6,1061.5,4.0,4.0,8.0,15.0,13.0,5.0,3.0,4.0,4.0,7.0,14.0,9.0,90.0,288.3,266.0,266.6,204.0,189.1,159.0,130.2,127.1,180.0,226.3,198.0,257.3,2491.9
200,Hartford(CT),United States,36.135755,-115.193557,4018.1126264707473,660.0,374,1.4,3.6,8.7,15.8,21.8,26.4,29.2,28.2,23.8,17.3,10.9,4.3,15.9,-7.9,-6.2,-2.3,3.6,8.7,14.1,17.1,16.2,11.5,5.1,0.7,-4.8,4.6,82.0,73.0,92.0,94.0,110.0,110.0,106.0,100.0,99.0,111.0,99.0,87.0,1165.0,10.8,9.7,11.5,11.2,12.8,12.2,10.4,10.0,9.8,10.2,10.7,10.7,130.0,169.8,176.1,213.9,228.2,258.6,273.4,293.1,269.6,223.6,199.4,139.4,139.5,2584.6
201,Kuwait City,Kuwait,29.379709100000003,47.9735629,3266.874598212975,7.0,0,19.5,21.8,26.9,33.9,40.9,45.5,46.7,46.9,43.7,36.6,27.8,21.9,34.3,8.5,10.0,14.0,19.5,25.4,28.9,30.7,29.5,26.2,21.5,14.5,9.9,19.9,30.2,10.5,18.2,11.5,0.4,0.0,0.0,0.0,0.0,1.4,18.5,25.5,116.2,5.0,3.0,3.0,1.0,0.0,0.0,0.0,0.0,0.0,1.0,3.0,3.0,19.0,198.1,222.5,217.6,229.3,272.5,304.5,307.1,301.6,285.1,252.2,216.5,193.5,3000.5
202,La Paz,Bolivia,-16.4955455,-68.1336229,1834.2209718344807,3650.0,314,14.3,14.3,14.2,14.4,14.4,14.0,13.5,13.7,15.3,15.3,17.0,15.7,15.0,4.4,4.4,3.6,1.0,-1.9,-4.3,-4.4,-3.0,-1.0,1.5,2.1,3.6,0.5,133.7,104.7,71.7,31.7,14.3,5.1,7.1,15.2,35.5,38.1,50.5,94.9,602.5,20.7,15.8,14.2,9.8,3.6,2.8,2.8,5.1,8.2,10.4,11.5,15.5,120.3,179.8,155.4,148.8,165.0,229.4,240.0,235.6,226.3,192.0,179.8,171.0,180.0,2303.1
203,Vienna,Austria,48.2083537,16.372504199999998,5360.524353326442,190.0,344,3.2,5.2,10.3,16.2,21.1,24.0,26.5,26.0,20.6,14.6,8.1,3.6,14.9,-1.9,-1.0,2.4,6.3,10.9,14.0,15.9,15.7,11.9,7.3,3.0,-0.8,7.0,38.0,40.0,51.0,45.0,69.0,70.0,70.0,72.0,61.0,38.0,49.0,48.0,651.0,7.3538526553463015,6.394292822090849,7.509303956212958,7.353557459535837,9.249825346942238,9.644081449262618,8.718897785938049,8.313964310242286,7.532363871253865,6.709078449126487,8.055475737054406,7.609907838222425,94.40352687405425,70.0,100.0,143.0,197.0,239.0,236.0,263.0,251.0,182.0,133.0,66.0,51.0,1930.0
204,Jaipur,India,26.916194,75.820349,2992.944217380712,441.0,592,22.6,25.7,31.6,37.4,40.7,39.6,34.6,32.7,34.2,33.8,29.3,24.5,32.2,8.6,11.4,16.8,22.2,26.5,27.7,26.1,24.8,23.6,19.6,14.0,9.5,19.2,5.9,9.3,4.5,5.8,18.3,51.4,179.4,190.2,66.6,25.8,3.4,4.2,564.8,0.6,0.9,0.6,0.8,1.6,3.7,9.3,8.9,4.0,1.3,0.3,0.3,32.4,231.0169924846752,225.54935979385436,241.5729467245405,256.1060677960289,270.0997838691232,195.23586788745004,147.11265347257947,145.3831747964094,187.63096179261444,234.85133171977836,231.4669634854792,224.3518843786751,2590.377988201208
205,Daegu,South Korea,35.8713,128.6018,3988.7065721449594,50.0,71,5.5,8.3,13.5,20.6,25.3,28.3,30.3,31.0,26.7,21.9,14.7,8.2,19.5,-3.6,-1.6,2.8,8.4,13.5,18.2,22.3,22.8,17.6,10.8,4.2,-1.5,9.5,20.6,28.2,47.1,62.9,80.0,142.6,224.0,235.9,143.5,33.8,30.5,15.3,1064.4,4.5,5.2,7.3,7.8,8.6,9.5,14.4,12.8,9.6,5.1,5.0,4.3,94.1,193.5,185.2,202.9,220.4,229.7,183.8,151.3,165.3,161.1,203.2,180.0,189.7,2266.0
206,Bamako,Mali,12.60503275,-7.986513673439357,1401.6156919885104,350.0,682,33.4,36.4,38.5,39.6,38.5,35.3,32.1,31.1,32.2,34.6,35.3,33.4,35.0,17.0,19.9,22.9,25.2,25.4,23.6,22.2,21.8,21.6,21.3,18.4,16.8,21.3,0.6,0.7,2.1,19.7,54.1,132.1,224.1,290.2,195.9,66.1,5.2,0.5,991.3,0.2,0.2,0.6,3.3,6.3,7.7,16.7,17.9,14.7,5.7,0.3,0.1,73.7,277.4,253.0,268.1,230.4,242.6,233.6,216.6,218.3,221.7,253.7,270.7,268.6,2954.7
207,Cincinnati(OH),United States,39.1014537,-84.5124602,4347.88327586711,167.0,626,3.7,6.1,11.8,18.2,23.2,27.8,29.8,29.4,25.6,19.0,12.2,5.3,17.7,-5.0,-3.3,1.1,6.5,11.8,16.7,18.9,18.2,13.9,7.5,2.3,-3.0,7.2,76.0,71.0,101.0,99.0,125.0,102.0,96.0,87.0,67.0,84.0,87.0,86.0,1080.0,12.4,11.6,12.5,12.7,12.8,11.5,10.6,9.1,7.7,8.4,10.6,12.5,132.4,120.8,128.4,170.1,211.0,249.9,275.5,277.0,261.5,234.4,188.8,118.7,99.3,2335.4
208,Havana,Cuba,23.135305,-82.3589631,2572.5285423744926,24.0,1,25.8,26.1,27.6,28.6,29.8,30.5,31.3,31.6,31.0,29.2,27.7,26.5,28.8,18.6,18.6,19.7,20.9,22.4,23.4,23.8,24.1,23.8,23.0,21.3,19.5,21.6,64.4,68.6,46.2,53.7,98.0,182.3,105.6,99.6,144.4,180.5,88.3,57.6,1189.2,5.0,5.0,3.0,3.0,6.0,10.0,7.0,9.0,10.0,11.0,6.0,5.0,80.0,217.0,203.4,272.8,273.0,260.4,237.0,272.8,260.4,225.0,195.3,219.0,195.3,2831.4
209,Kaohsiung,Taiwan,22.6203348,120.3120375,2515.2664687613587,13.0,2,23.9,24.7,26.8,29.1,30.8,31.6,32.4,31.9,31.4,30.0,27.7,24.9,28.8,15.7,16.7,19.2,22.4,24.8,25.9,26.4,26.1,25.5,24.0,20.9,17.1,22.1,16.0,20.5,38.8,69.8,197.4,415.3,390.9,416.7,241.9,42.7,18.7,16.2,1884.9,3.2,3.7,4.0,5.8,9.3,13.8,12.9,16.3,11.2,3.5,2.6,2.3,88.6,174.7,165.8,187.0,189.1,198.5,199.9,221.4,193.7,175.7,182.4,162.2,161.8,2212.2
210,Leon,Mexico,21.1218598,-101.6825081,2348.6436510576536,1808.0,345,23.6,25.7,28.2,30.5,31.7,29.9,27.5,27.6,27.1,26.9,25.8,24.0,27.4,7.7,8.9,10.9,13.8,15.7,16.4,15.2,15.2,14.8,12.5,10.0,8.3,12.5,15.1,11.0,5.7,8.1,24.6,107.5,182.6,160.0,111.5,39.3,9.4,6.5,681.3,2.7,1.6,1.3,2.0,4.9,11.6,16.2,13.3,10.3,5.0,1.3,1.4,71.6,176.3895769450524,174.70256678009872,200.96811156723265,187.4052835492987,181.91161135834267,142.36572235900752,141.97975429716837,146.95511873473666,130.4086579619035,157.64703917692134,171.80007251894233,166.53343148377286,1979.4035613187748
211,Bucharest,Romania,44.4361414,26.1027202,4941.073483340239,81.0,198,2.8,5.5,11.4,18.0,24.0,27.7,29.8,29.8,24.6,17.9,9.8,3.8,17.1,-4.8,-4.0,0.1,4.9,9.6,13.6,15.4,14.9,10.5,5.4,0.6,-3.4,5.2,37.0,37.0,44.0,50.0,56.0,83.0,70.0,56.0,64.0,53.0,46.0,48.0,643.0,6.0,6.0,9.0,11.0,12.0,11.0,9.0,8.0,8.0,10.0,10.0,9.0,109.0,70.6,84.5,138.0,184.8,246.3,265.8,289.2,281.4,224.1,177.4,87.5,62.8,2112.4
212,Kunming,China,24.8843019,102.8324209,2767.0081243715535,1932.0,578,15.9,17.9,21.1,24.0,24.6,24.6,24.4,24.7,23.1,20.9,18.0,15.5,21.2,3.5,5.0,8.0,11.4,14.7,17.0,17.3,16.8,15.2,12.7,7.9,4.2,11.1,15.8,14.6,17.6,25.2,85.5,170.4,200.2,203.9,113.9,81.7,36.7,13.6,979.1,4.4,4.6,5.5,6.8,12.2,17.4,20.3,19.3,15.8,13.0,7.3,3.8,130.4,224.5,219.6,255.4,244.8,212.2,135.0,124.3,144.9,123.5,143.7,169.8,200.0,2197.7
213,San Francisco Bay Area(CA),United States,37.7884969,-122.3558473,4201.889140803635,0.0,1,13.8,15.7,16.6,17.3,17.9,19.1,19.2,20.1,21.2,20.7,17.3,13.9,17.7,7.6,8.6,9.2,9.6,10.6,11.6,12.3,12.8,12.8,12.1,10.1,7.8,10.4,114.0,113.0,83.0,37.0,18.0,4.1,0.0,1.5,5.3,28.0,80.0,116.0,601.0,11.7,11.1,11.0,6.5,3.8,1.5,0.3,1.0,1.7,3.9,8.9,11.6,73.0,185.9,207.7,269.1,309.3,325.1,311.4,313.3,287.4,271.4,247.1,173.4,160.6,3061.7
214,Ahmedabad,India,23.0216238,72.5797068,2559.887769679628,52.0,78,28.1,30.8,35.8,39.6,41.6,38.8,33.6,32.0,33.8,35.7,32.9,29.5,34.3,12.4,14.3,19.5,23.9,27.0,27.5,25.9,25.0,24.7,21.4,16.7,13.4,21.0,1.0,0.8,0.6,2.4,7.0,80.0,291.2,266.2,86.8,11.7,2.3,1.0,751.0,0.1,0.1,0.0,0.4,0.6,3.9,11.5,10.7,5.0,0.8,0.4,0.2,33.7,287.3,274.3,277.5,297.2,329.6,238.3,130.1,111.4,220.6,290.7,274.1,288.6,3019.7
215,Vientiane,Laos,17.964098800000006,102.6133707,1997.5166483016062,170.0,335,28.4,30.3,33.0,34.3,33.0,31.9,31.3,30.8,30.9,30.8,29.8,28.1,31.1,16.4,18.5,21.5,23.8,24.6,24.9,24.7,24.6,24.1,22.9,19.3,16.7,21.8,7.5,13.0,33.7,84.9,245.8,279.8,272.3,334.6,297.3,78.0,11.1,2.5,1660.5,1.0,2.0,4.0,8.0,15.0,18.0,20.0,21.0,17.0,9.0,2.0,1.0,118.0,254.4,214.3,216.8,226.3,207.1,152.9,148.6,137.1,137.7,247.7,234.3,257.5,2434.7
216,Hyderabad,India,17.38878595,78.46106473453145,1933.5447781481835,510.0,270,29.3,32.4,35.9,38.1,39.4,34.9,31.3,30.1,31.1,31.0,29.6,28.7,32.7,15.9,18.3,21.5,24.4,26.3,24.2,22.8,22.2,22.3,20.6,17.4,15.1,20.9,9.3,9.2,17.8,21.7,31.7,111.2,179.2,207.0,132.9,103.6,26.1,4.9,854.6,0.6,0.5,1.1,1.8,2.4,6.9,10.0,11.5,7.6,5.5,1.6,0.4,49.9,272.8,265.6,272.8,276.0,279.0,180.0,136.4,133.3,162.0,226.3,243.0,251.1,2698.3
217,Madrid,Spain,40.4167047,-3.7035825,4494.1325143312915,661.0,306,9.8,12.0,16.3,18.2,22.2,28.2,32.1,31.3,26.4,19.4,13.5,10.0,19.9,2.7,3.7,6.2,7.7,11.3,16.1,19.0,18.8,15.4,10.7,6.3,3.6,10.1,33.0,35.0,25.0,45.0,51.0,21.0,12.0,10.0,22.0,60.0,58.0,51.0,423.0,6.0,5.0,4.0,7.0,7.0,3.0,2.0,2.0,3.0,7.0,7.0,7.0,59.0,149.0,158.0,211.0,230.0,268.0,315.0,355.0,332.0,259.0,199.0,144.0,124.0,2744.0
218,Sofia,Bulgaria,42.6978634,23.3221789,4747.785788642389,554.0,215,3.4,5.6,10.6,16.2,21.1,24.7,27.3,27.5,22.9,17.1,9.7,4.3,15.9,-3.9,-2.9,0.8,5.4,9.8,13.2,15.1,14.9,11.0,6.6,1.4,-2.4,5.8,33.2,31.5,38.1,50.7,67.0,75.4,52.6,57.6,45.7,45.0,43.3,41.7,581.8,9.1,8.9,9.9,13.3,13.4,12.6,9.4,8.2,7.2,7.5,9.9,10.3,119.7,87.8,114.3,159.6,182.2,229.6,257.7,302.1,288.3,220.1,163.6,105.5,66.1,2176.9
219,Buffalo(NY),United States,42.8867166,-78.87839220000002,4768.785306362979,182.0,438,-0.4,0.7,5.6,12.8,19.2,24.1,26.6,25.8,21.7,15.0,8.7,2.3,13.6,-7.5,-7.1,-3.3,2.7,8.6,14.1,16.8,16.0,11.9,5.9,1.1,-4.4,4.6,81.0,63.0,73.0,76.0,88.0,93.0,82.0,83.0,99.0,89.0,102.0,99.0,1028.0,19.2,16.0,15.1,13.1,12.7,12.1,10.6,10.1,11.4,12.9,15.0,18.3,166.5,91.3,108.0,163.7,204.7,258.3,287.1,306.7,266.4,207.6,159.4,84.4,69.0,2206.6
220,Kolkata,India,22.5726723,88.36388149999998,2509.966640570163,15.0,48,25.8,29.2,33.5,35.3,35.3,33.8,32.4,32.2,32.4,32.2,30.1,27.0,31.6,14.1,17.8,22.4,25.3,26.4,26.8,26.5,26.4,26.0,24.1,19.7,15.2,22.6,10.4,20.9,35.2,58.9,133.1,300.6,396.0,344.5,318.1,180.5,35.1,3.2,1836.5,1.1,1.7,2.2,3.4,7.0,12.8,17.7,16.9,13.9,7.4,1.3,0.5,85.9,213.9,211.9,229.4,240.0,232.5,135.0,105.4,117.8,126.0,201.5,216.0,204.6,2234.0
221,Tianjin,China,39.3032619,117.41636409999998,4370.323323862381,5.0,34,2.0,5.7,12.2,20.9,26.5,30.2,31.3,30.5,26.6,19.9,10.6,3.8,18.4,-7.4,-4.4,1.7,9.3,15.1,20.0,22.9,22.2,16.7,9.4,1.1,-5.0,8.5,2.5,3.6,8.1,22.1,36.8,79.7,149.8,124.1,44.7,26.5,10.8,2.8,511.5,1.6,2.0,3.1,4.5,5.9,7.8,11.1,9.4,6.0,4.7,2.9,2.0,61.0,170.1,170.2,202.4,223.8,249.0,226.9,206.4,204.4,205.3,196.1,163.0,157.6,2375.2
222,Isfahan,Iran,32.6707877,51.6650002,3632.825841721451,1576.0,313,8.8,11.9,16.8,22.0,28.0,34.1,36.4,35.1,31.2,24.4,16.9,10.8,23.0,-2.4,-0.2,4.5,9.4,14.2,19.1,21.5,19.8,15.1,9.3,3.6,-0.9,9.4,17.1,14.1,18.2,19.2,8.8,0.6,0.7,0.2,0.0,4.1,9.9,19.6,112.5,4.0,2.9,3.8,3.5,2.0,0.2,0.3,0.1,0.0,0.8,2.2,3.7,23.5,205.3,213.3,242.1,244.5,301.3,345.4,347.6,331.2,311.6,276.5,226.1,207.6,3252.5
223,Phnom Penh,Cambodia,11.5730391,104.857807,1286.86323377911,11.0,130,31.6,33.2,34.6,35.3,34.8,33.8,32.9,32.7,32.2,31.4,31.1,30.8,32.9,21.8,22.8,24.3,25.5,25.6,24.9,24.8,24.6,24.4,24.2,23.2,21.9,24.0,12.1,6.6,34.8,78.8,118.2,145.0,162.1,182.7,270.9,248.1,120.5,32.1,1411.9,1.2,1.1,3.4,6.8,15.9,17.0,18.1,18.3,21.5,19.3,10.2,4.5,137.3,260.0,226.0,267.0,240.0,202.0,192.0,143.0,174.0,129.0,202.0,213.0,242.0,2490.0
224,Allentown-Bethlehem(PA),United States,40.65116310000001,-75.44225386838299,4520.203098920494,115.0,95,2.2,4.3,9.7,16.3,21.9,26.7,29.0,28.0,23.8,17.6,11.4,4.7,16.3,-6.9,-5.7,-1.8,3.6,9.1,14.5,17.1,16.1,11.6,5.2,0.5,-4.4,4.9,77.0,69.0,86.0,90.0,105.0,109.0,126.0,94.0,117.0,99.0,89.0,91.0,1152.0,11.1,9.8,11.0,12.1,12.1,11.4,10.9,9.5,9.1,9.1,9.8,10.9,126.8,148.43684389575373,157.19934390431143,204.55036663757153,223.10831261192632,251.76551293245362,267.249041981301,276.5115960915316,259.62305488138963,213.15510109989145,191.9863717063226,143.69819974934302,131.89347543044485,2469.1772209222404
